ROBOTLASER1 0 -1.570796 3.150447 0.008727 80.000000 0.010000 0 361 81.91 81.91 81.91 81.91 81.91 81.91 81.91 81.91 81.91 81.91 81.91 81.91 81.91 81.91 81.91 81.91 81.91 81.91 81.91 81.91 81.91 81.91 81.91 81.91 81.91 81.91 81.91 81.91 81.91 81.91 81.91 81.91 81.91 81.91 81.91 81.91 81.91 81.91 81.91 1.64 1.64 1.61 1.61 1.61 1.62 1.68 1.62 3.05 3.03 3.17 3.15 3.28 3.26 3.41 3.40 3.56 3.55 3.56 3.57 3.51 3.52 3.48 3.49 3.46 3.46 3.43 3.43 3.41 3.41 3.39 3.40 3.37 3.37 2.78 3.01 3.32 3.09 5.90 5.85 6.37 6.37 6.25 6.25 6.39 6.28 6.80 6.89 6.54 6.85 6.21 6.21 6.20 6.20 6.19 6.19 6.21 6.21 4.21 4.30 4.19 4.19 4.18 4.19 4.20 4.19 4.19 4.19 4.19 4.20 2.52 2.56 2.49 2.49 4.21 4.20 4.21 4.21 4.22 4.23 4.23 4.23 4.24 4.24 4.25 4.25 4.27 4.27 4.28 4.29 4.29 4.30 4.32 4.32 4.34 4.34 4.36 4.37 4.38 4.39 4.42 4.42 4.44 4.45 3.04 3.04 2.53 2.53 2.63 2.51 4.53 2.79 4.56 4.56 4.72 4.72 4.82 4.79 3.04 3.04 4.91 4.91 2.66 4.96 2.63 2.64 5.06 5.06 5.09 5.08 5.22 5.19 6.89 6.91 6.44 6.47 6.34 6.36 6.22 6.23 6.05 6.08 5.82 5.83 5.74 5.75 5.67 5.68 5.67 5.66 5.67 5.68 5.57 5.58 5.48 5.48 5.38 5.39 5.30 5.31 5.22 5.23 4.47 4.48 4.42 4.44 4.36 4.36 4.29 4.30 4.24 4.25 4.19 4.20 4.13 4.14 4.09 4.09 4.04 4.05 4.00 4.00 3.96 3.96 3.92 3.92 3.88 3.89 3.85 3.86 3.81 3.82 3.78 3.78 3.75 3.75 3.70 3.70 3.68 3.68 3.65 3.66 3.63 3.63 3.60 3.61 3.59 3.59 3.57 3.57 3.54 3.55 3.53 3.53 3.51 3.52 3.53 3.53 3.92 3.91 4.00 4.00 3.98 3.99 3.97 3.97 3.97 3.97 4.46 4.46 5.43 5.43 6.22 6.19 7.66 7.63 6.07 6.07 6.21 6.20 6.08 6.07 6.14 6.14 6.26 6.34 6.19 6.24 11.84 11.84 11.87 11.88 11.58 11.57 2.65 2.65 2.62 2.62 2.63 2.63 2.61 2.61 2.69 2.70 2.83 2.83 3.44 3.45 3.23 3.23 3.25 3.25 3.21 3.22 3.20 3.21 3.18 3.18 3.15 3.15 3.13 3.13 3.10 3.11 3.09 3.08 3.05 3.05 3.05 3.05 3.03 3.03 3.02 3.02 3.00 3.00 2.99 2.99 2.97 2.97 2.97 2.96 2.96 2.96 2.95 2.94 2.94 2.94 2.94 2.94 2.93 2.93 2.92 2.92 2.93 2.93 2.92 2.92 2.92 2.92 2.14 2.12  0 0.000000 0.000000 0.000000 0.000000 0.000000 0.000000 0.000000 0.000000 0.000000 0.000000 0.000000 1134864642.914187 b21 0.430003
ROBOTLASER1 0 -1.570796 3.150447 0.008727 80.000000 0.010000 0 361 4.04 4.05 4.05 4.05 4.06 4.06 4.06 4.07 4.07 4.08 4.08 4.09 4.09 4.11 4.11 4.12 4.12 4.14 4.14 4.16 4.16 2.55 2.68 2.35 2.28 4.24 4.23 4.38 4.26 4.42 4.41 4.29 4.28 4.30 4.31 4.47 4.45 2.79 2.83 4.58 4.58 2.38 2.37 4.67 2.34 4.72 4.70 4.76 4.76 4.80 4.80 4.79 4.79 4.87 4.89 6.66 6.70 6.24 6.54 6.04 6.05 5.96 6.01 5.80 5.84 5.61 5.71 5.44 5.48 5.43 5.54 5.33 5.35 5.41 5.39 5.32 5.35 5.23 5.25 5.13 5.16 5.04 5.06 4.93 4.96 4.32 4.84 4.14 4.16 4.08 4.10 4.02 4.04 3.97 3.99 3.91 3.93 3.87 3.88 3.82 3.83 3.77 3.78 3.70 3.74 3.67 3.69 3.63 3.65 3.59 3.61 3.56 3.57 3.53 3.54 3.49 3.51 3.46 3.48 3.43 3.45 3.41 3.42 3.37 3.39 3.36 3.37 3.33 3.34 3.31 3.32 3.29 3.30 3.27 3.28 3.25 3.26 3.24 3.24 3.22 3.23 3.21 3.21 3.20 3.21 3.21 3.21 3.62 3.53 3.69 3.70 3.68 3.68 3.67 3.67 3.64 3.66 4.16 4.02 5.14 5.13 6.35 6.05 6.11 7.63 5.72 5.78 5.95 5.88 5.80 5.88 5.92 5.84 5.78 5.88 5.92 6.15 11.61 11.62 11.30 11.33 11.49 11.41 11.43 11.42 11.60 11.58 2.43 81.91 2.37 2.37 2.36 10.30 2.42 2.41 2.44 2.44 2.45 2.45 3.20 3.16 3.04 3.07 3.03 3.01 3.01 3.02 2.99 3.00 2.96 2.97 2.96 2.96 2.95 2.94 2.92 2.92 2.91 2.92 2.89 2.90 2.88 2.88 2.86 2.87 2.86 2.86 2.84 2.85 2.84 2.84 2.83 2.84 2.82 2.83 2.83 2.82 2.82 2.82 2.82 2.83 2.81 2.82 2.82 2.82 2.81 2.82 2.81 2.82 2.80 2.81 2.81 2.81 2.81 2.82 2.81 2.82 2.80 2.81 2.72 2.73 2.11 2.13 2.07 2.04 2.25 2.26 2.25 2.25 2.25 2.25 2.25 2.25 2.26 2.27 2.28 2.28 2.29 2.29 1.92 1.92 1.91 1.91 1.90 1.90 1.89 1.90 1.88 1.88 1.89 1.88 1.90 1.91 2.38 2.38 2.44 2.44 2.45 2.45 2.46 2.46 2.48 2.48 2.51 2.51 2.52 2.52 2.56 2.56 2.56 2.57 81.91 2.51 2.41 2.42 2.24 2.26 2.27 2.27 2.30 2.29 2.91 2.89 2.96 2.96 2.98 2.99 3.02 3.04 81.91 81.91 81.91 81.91 81.91 81.91 81.91 81.91 2.65 2.66 81.91 81.91 3.14 3.14 3.10 3.11 3.08 3.07 3.01 3.01 2.96 2.97 2.95 2.95 2.98 2.97 3.07 3.06 3.15 3.14 81.91 81.91  0 0.319678 0.110037 0.994330 0.319678 0.110037 0.994330 0.000000 0.000000 0.000000 0.000000 0.000000 1134864643.764189 b21 1.280005
ROBOTLASER1 0 -1.570796 3.150447 0.008727 80.000000 0.010000 0 361 3.28 3.23 3.24 3.20 3.21 3.17 3.18 3.14 3.15 3.11 3.12 3.08 3.09 3.06 3.07 3.04 3.05 3.02 3.03 3.00 3.01 2.98 2.99 2.96 2.97 2.94 2.95 2.93 2.93 2.92 2.93 3.11 3.03 3.33 3.25 3.40 3.40 3.39 3.39 3.38 3.38 3.36 3.37 3.53 3.37 3.89 3.81 4.80 4.80 5.21 4.83 6.19 5.84 5.53 7.05 5.38 5.45 5.64 5.57 5.46 5.48 5.54 5.48 5.77 5.84 5.74 5.56 11.22 5.48 11.29 11.24 10.94 11.06 11.14 11.00 2.07 11.07 2.02 2.03 1.99 2.00 1.98 1.98 1.98 1.98 1.99 1.98 2.08 2.04 2.28 2.26 2.49 2.39 2.64 2.65 2.67 2.67 2.64 2.66 2.62 2.64 2.61 2.62 2.59 2.60 2.59 2.59 2.57 2.58 2.55 2.56 2.53 2.55 2.52 2.53 2.51 2.52 2.50 2.51 2.49 2.50 2.48 2.50 2.48 2.49 2.48 2.48 2.47 2.48 2.47 2.47 2.47 2.48 2.47 2.48 2.47 2.47 2.47 2.47 2.46 2.47 2.46 2.47 2.47 2.47 2.47 2.47 2.47 2.47 2.46 2.48 2.46 2.47 2.46 2.47 2.46 2.47 2.41 2.46 2.41 2.39 2.44 2.46 1.71 1.73 1.70 1.70 1.65 1.68 1.64 1.64 1.62 1.64 1.62 1.64 1.61 1.64 1.61 1.63 1.63 1.62 1.64 1.66 1.79 1.81 1.61 1.62 1.59 1.60 1.61 1.60 1.60 1.61 1.59 1.59 1.60 1.60 1.60 1.60 1.82 1.61 2.10 2.13 2.08 2.11 2.03 2.08 1.98 2.03 1.91 1.95 1.86 1.88 1.85 1.86 1.88 1.89 1.90 1.91 1.93 1.95 2.01 2.01 2.02 2.04 2.05 2.07 2.09 2.08 2.75 2.62 2.80 2.80 81.91 81.91 81.91 81.91 81.91 81.91 81.91 81.91 81.91 81.91 81.91 81.91 2.47 2.47 2.95 2.94 2.94 2.94 2.91 2.91 2.87 2.89 2.84 2.84 2.81 2.81 2.84 2.82 2.95 2.93 3.15 3.07 4.50 4.53 4.43 4.44 4.48 4.47 4.55 4.54 4.61 4.61 3.98 4.02 4.02 4.01 4.02 4.02 4.05 4.06 4.18 4.09 81.91 81.91 7.18 7.20 6.25 6.29 6.14 6.16 6.06 6.06 6.15 6.13 6.28 6.26 81.91 6.38 6.05 6.08 81.91 81.91 81.91 81.91 2.60 2.63 2.57 2.58 2.48 2.53 2.49 2.48 2.55 2.59 2.52 2.54 2.51 2.52 2.62 2.61 2.59 2.58 6.51 6.48 10.77 6.63 10.86 10.83 6.72 10.92 6.40 10.98 5.02 5.09 4.87 4.89 2.83 2.84 2.76 2.77 2.73 2.75 2.68 2.69 2.64 2.65 2.61 2.62 2.57 2.57 2.54 2.53 2.50 2.50 2.51 2.50 2.57 2.58  0 0.407364 0.462189 1.923808 0.407364 0.462189 1.923808 0.000000 0.000000 0.000000 0.000000 0.000000 1134864644.614190 b21 2.130006
ROBOTLASER1 0 -1.570796 3.150447 0.008727 80.000000 0.010000 0 361 2.02 2.62 2.62 2.60 2.67 2.42 2.42 2.47 2.46 2.44 2.45 2.39 2.40 2.37 2.38 2.36 2.35 2.33 2.34 2.31 2.32 2.30 2.30 2.28 2.29 2.26 2.27 2.24 2.25 2.22 2.24 2.22 2.22 2.20 2.21 2.18 2.19 2.17 2.18 2.16 2.17 2.15 2.16 2.14 2.14 2.13 2.13 2.12 2.13 2.12 2.12 2.11 2.12 2.10 2.11 2.10 2.10 2.09 2.10 2.09 2.09 2.09 2.09 2.08 2.10 2.09 2.09 2.08 2.09 2.09 2.09 2.09 2.09 2.08 2.09 1.95 2.03 1.31 1.35 1.22 1.29 1.26 1.30 1.31 1.33 1.29 1.30 1.26 1.29 1.24 1.26 1.24 1.25 1.23 1.26 1.19 1.23 1.24 1.26 1.27 1.27 1.40 1.36 1.35 1.48 1.20 1.20 1.19 1.19 1.18 1.19 1.17 1.18 1.16 1.17 1.17 1.17 1.16 1.17 1.16 1.17 1.16 1.17 1.19 1.18 1.70 1.71 1.69 1.72 1.68 1.70 1.67 1.69 1.63 1.66 1.59 1.60 1.54 1.55 1.50 1.52 1.40 1.41 1.43 1.44 1.46 1.46 1.46 1.47 1.47 1.49 1.51 1.50 1.62 1.59 1.58 1.61 1.67 1.69 1.67 1.65 1.68 1.68 2.36 2.36 2.39 2.39 81.91 81.91 81.91 81.91 81.91 81.91 81.91 81.91 81.91 81.91 81.91 81.91 81.91 81.91 2.03 2.05 2.51 2.51 2.52 2.52 2.49 2.49 2.47 2.48 2.45 2.45 2.42 2.44 2.39 2.40 2.47 2.48 2.59 2.60 2.66 2.67 4.06 4.07 4.13 4.14 4.21 4.21 4.27 4.28 3.68 3.68 3.65 3.65 3.66 3.67 3.69 3.72 3.70 3.73 6.86 6.87 5.94 5.95 5.84 5.85 5.75 5.77 5.78 5.78 5.90 5.90 6.02 6.03 6.06 6.07 81.91 81.91 81.91 81.91 9.44 9.44 9.22 9.26 8.98 8.97 8.92 8.93 8.96 8.96 2.38 2.38 2.32 2.32 2.29 2.30 2.23 2.22 2.19 2.21 2.34 2.35 2.24 2.25 2.23 2.26 2.31 2.31 2.34 2.34 9.30 9.23 4.92 4.90 4.72 4.73 4.66 4.67 4.69 4.69 4.66 4.71 4.95 4.90 2.65 2.65 2.62 2.62 2.58 2.59 2.55 2.55 2.52 2.52 2.49 2.50 2.47 2.47 2.43 2.43 2.41 2.40 2.38 2.39 2.37 2.36 2.47 2.47 2.55 2.58 2.67 2.67 2.68 2.70 2.87 2.89 3.08 3.10 3.46 3.47 3.59 3.66 6.28 6.26 5.91 5.91 5.86 5.86 5.80 5.80 81.91 81.91 3.86 3.86 3.77 3.76 3.10 81.91 2.94 2.98 3.80 3.79 3.76 3.79 2.36 2.29 2.28 2.28 2.28 2.28 2.28 2.28 2.28 2.28 2.28 2.28 2.28 2.28 2.29 2.29  0 0.133941 0.831492 2.551249 0.133941 0.831492 2.551249 0.000000 0.000000 0.000000 0.000000 0.000000 1134864645.474201 b21 2.990017
ROBOTLASER1 0 -1.570796 3.150447 0.008727 80.000000 0.010000 0 361 0.88 0.88 0.88 0.87 0.87 0.86 0.86 0.86 0.86 0.83 0.83 0.91 0.85 81.91 81.91 81.91 81.91 81.91 81.91 81.91 81.91 81.91 81.91 81.91 81.91 81.91 81.91 1.29 1.30 1.29 1.30 1.30 1.30 1.31 1.31 1.31 1.31 1.31 1.32 1.30 1.31 1.20 1.20 1.14 1.15 1.11 1.11 1.06 1.06 1.11 1.11 1.12 1.12 1.13 1.14 1.10 1.08 1.02 1.03 1.03 1.03 1.02 1.03 1.03 1.02 1.04 1.04 81.91 81.91 81.91 81.91 1.09 1.10 81.91 81.91 81.91 81.91 81.91 81.91 81.91 81.91 81.91 1.76 1.72 1.73 1.75 1.75 1.79 1.78 1.79 1.80 1.82 1.83 1.84 1.85 81.91 81.91 81.91 81.91 81.91 81.91 81.91 81.91 81.91 81.91 81.91 81.91 81.91 81.91 81.91 81.91 81.91 81.91 1.48 1.50 81.91 81.91 1.98 1.98 1.97 1.97 1.94 1.94 1.90 1.92 1.90 1.91 1.88 1.87 1.85 1.86 1.84 1.84 1.82 1.83 1.84 1.88 1.91 1.96 2.00 2.04 2.16 3.51 3.46 3.47 3.48 3.51 3.54 3.57 3.59 3.64 3.66 3.68 3.32 3.14 3.05 3.08 3.06 3.07 3.07 3.10 3.10 3.12 3.11 3.15 3.24 5.47 5.37 5.34 5.29 5.26 5.21 5.20 5.17 5.22 5.27 5.34 5.39 5.46 5.51 5.55 5.23 5.23 81.91 81.91 8.92 8.93 8.94 8.59 8.46 8.42 8.38 8.38 8.38 8.41 8.42 7.80 7.72 7.54 7.44 7.50 7.56 5.92 5.87 5.85 5.77 5.74 1.85 1.84 1.81 1.79 1.77 1.79 1.77 1.76 1.74 1.73 1.70 1.70 1.69 1.80 1.83 1.85 1.81 1.75 1.77 1.79 1.78 1.82 1.87 1.88 4.25 4.25 4.37 4.60 4.44 4.42 4.40 7.23 7.17 7.13 7.05 7.02 6.94 6.90 6.87 2.23 2.20 2.21 2.20 2.19 2.18 2.17 2.16 2.16 2.14 2.13 2.12 2.12 2.11 2.10 2.10 2.09 2.07 2.08 2.08 2.08 2.06 2.06 2.04 2.05 2.04 2.06 2.03 2.20 2.23 2.36 2.35 2.44 2.85 3.32 5.58 5.56 5.54 5.53 5.51 5.50 3.89 3.88 81.91 3.63 3.62 3.63 3.63 3.64 3.64 3.64 3.57 3.28 3.24 2.87 2.92 2.87 2.93 3.01 4.53 4.59 4.72 81.91 2.90 5.14 5.02 4.90 4.98 5.30 4.74 2.16 2.14 2.15 2.15 2.16 2.16 2.17 2.17 2.18 2.18 2.19 2.20 2.21 2.21 2.22 2.22 2.24 2.24 2.25 2.26 2.27 2.27 2.29 2.25 1.91 1.87 1.87 1.86 1.89 1.89 1.94 1.93 2.20 2.19 2.19 2.19 2.18 2.18 2.18 2.17 2.20 2.21 2.22 2.21 2.17  0 -0.436994 1.019508 3.058079 -0.436994 1.019508 3.058079 0.000000 0.000000 0.000000 0.000000 0.000000 1134864646.324202 b21 3.840018
ROBOTLASER1 0 -1.570796 3.150447 0.008727 80.000000 0.010000 0 361 81.91 0.80 0.94 0.88 0.95 0.94 1.01 1.02 1.00 1.18 1.25 1.18 1.18 1.28 1.28 1.27 1.28 1.30 1.30 1.31 1.33 1.33 1.32 1.34 1.34 1.34 1.35 1.35 1.36 1.35 1.36 1.36 1.36 1.37 1.36 1.37 1.37 1.39 1.39 1.39 1.39 1.41 1.41 1.41 1.42 1.42 1.42 1.43 1.44 1.44 1.43 81.91 81.91 81.91 81.91 81.91 81.91 81.91 81.91 81.91 81.91 81.91 81.91 81.91 81.91 81.91 81.91 81.91 81.91 81.91 81.91 2.22 81.91 2.19 2.20 2.19 2.20 1.54 1.54 1.47 1.48 1.45 1.47 1.44 1.44 1.39 1.41 1.39 1.40 81.91 81.91 1.40 81.91 1.33 1.35 1.31 1.32 1.29 1.29 1.27 1.28 1.26 1.26 1.24 1.25 1.25 1.26 1.28 1.30 1.32 1.33 1.36 1.37 1.39 1.40 1.43 1.44 1.47 1.47 3.17 3.16 3.06 3.05 2.98 2.98 2.92 2.91 2.84 2.83 2.83 2.85 2.88 2.90 2.92 2.94 2.96 2.98 3.01 3.03 2.52 2.52 2.36 2.40 2.40 2.41 2.40 2.42 2.41 2.43 2.43 2.46 2.45 2.47 2.48 2.50 5.63 5.63 4.77 4.71 4.65 4.65 4.57 4.56 4.51 4.50 4.50 4.53 4.60 4.64 4.71 4.74 4.79 4.86 4.85 4.62 4.54 4.61 81.91 81.91 8.25 8.24 8.07 7.90 7.78 7.77 7.71 7.72 7.72 7.74 7.77 7.64 7.06 7.06 6.82 6.79 6.86 6.90 6.94 5.28 5.18 5.19 5.11 5.09 5.06 5.10 5.08 5.12 9.53 9.58 8.47 8.34 8.12 8.12 8.27 8.30 1.23 1.20 1.19 1.20 1.18 1.18 1.16 1.17 1.17 1.16 1.15 1.15 1.13 1.15 1.14 1.16 1.24 1.20 1.12 1.13 1.09 1.07 1.17 1.29 1.33 1.30 1.20 1.21 1.20 1.22 1.19 1.19 1.23 1.25 1.21 6.46 6.56 6.63 6.75 6.75 6.87 6.86 6.88 6.94 7.07 7.13 7.21 7.26 1.76 1.71 1.69 1.70 1.68 1.68 1.67 1.67 1.67 1.67 1.65 1.67 1.65 1.65 1.65 1.65 1.64 1.64 1.64 1.64 1.63 1.63 1.62 1.63 1.63 1.63 1.63 1.63 1.63 1.63 1.63 1.64 1.63 1.64 1.63 1.66 1.65 1.66 81.91 3.38 3.29 3.29 3.30 3.31 3.32 3.33 3.33 3.34 3.34 3.35 3.34 3.35 3.34 3.30 3.24 81.91 2.66 2.61 2.60 2.55 2.49 2.49 2.54 4.22 4.13 2.70 4.13 4.14 3.62 3.54 3.38 3.42 3.31 3.32 3.34 3.33 3.29 3.33 3.33 3.36 3.37 3.39 3.40 2.00 2.01 2.03 2.04 2.05 2.06 2.08 2.09 2.11 2.11 2.13 2.14 2.15 2.17 2.19  0 -1.095999 1.079299 3.119036 -1.095999 1.079299 3.119036 0.000000 0.000000 0.000000 0.000000 0.000000 1134864647.183185 b21 4.699001
ROBOTLASER1 0 -1.570796 3.150447 0.008727 80.000000 0.010000 0 361 1.82 2.01 2.02 2.03 2.04 2.06 2.08 2.10 2.11 2.13 2.14 2.17 2.15 1.91 1.78 1.76 1.76 1.76 1.77 1.77 1.78 1.77 1.78 1.78 1.78 1.80 1.80 1.18 1.18 1.15 1.15 81.91 81.91 0.95 0.96 1.02 1.03 1.00 1.00 0.95 0.94 0.91 0.90 0.87 0.87 0.86 0.86 0.86 0.86 0.87 0.87 0.88 0.88 0.88 0.89 0.89 0.89 0.90 0.90 0.91 0.91 0.91 0.91 0.93 0.93 0.94 0.94 0.94 0.94 0.95 0.95 0.96 0.97 0.97 0.99 1.00 1.00 1.79 1.81 1.84 1.83 4.04 4.07 4.09 4.07 3.73 81.91 81.91 81.91 4.28 4.28 4.35 4.37 4.07 4.04 81.91 81.91 2.68 81.91 81.91 2.70 81.91 81.91 2.61 2.58 2.53 2.50 2.45 2.41 2.36 2.33 2.29 2.27 2.28 2.30 2.30 2.30 2.31 2.33 2.34 2.36 2.38 2.38 2.03 1.86 1.78 1.79 1.80 1.78 1.79 1.80 1.80 1.82 1.82 1.82 1.82 1.84 1.86 1.83 1.83 4.80 4.80 4.81 4.81 4.86 81.91 81.91 81.91 81.91 5.01 4.98 4.44 4.16 4.09 4.03 3.99 3.97 3.93 3.90 3.86 3.86 3.87 3.91 3.94 3.99 4.02 4.08 4.11 4.18 4.20 81.91 3.92 3.90 81.91 81.91 81.91 81.91 7.60 7.63 7.47 7.21 7.15 7.11 7.07 7.07 7.06 7.09 7.11 7.11 6.56 6.43 6.41 6.21 6.12 6.17 6.25 6.27 6.32 6.43 6.48 4.62 4.56 4.47 4.46 4.49 4.48 4.45 4.45 4.46 4.44 7.55 7.52 7.50 7.50 7.48 7.47 7.54 7.64 8.23 8.21 8.13 8.06 7.97 7.92 7.83 7.77 7.69 7.64 7.57 7.51 3.28 3.24 3.18 3.14 3.09 3.06 3.04 3.02 3.02 3.02 3.04 3.04 3.18 3.29 3.16 3.34 3.32 3.26 3.27 5.81 0.64 0.63 0.61 0.61 0.64 81.91 0.62 0.60 0.61 0.60 0.60 0.60 0.61 0.60 0.61 0.60 0.61 0.60 0.62 0.61 0.59 0.60 0.61 0.59 0.59 0.58 0.58 0.59 0.59 0.58 0.59 0.59 0.59 0.57 0.58 0.57 0.56 0.57 0.56 0.57 0.57 0.56 0.58 0.57 0.69 0.59 0.76 0.75 0.75 0.74 0.89 0.87 1.01 1.00 1.00 0.90 1.15 1.06 1.31 1.30 1.32 1.30 1.32 1.32 1.33 1.32 1.33 1.33 1.34 1.34 1.34 1.34 1.34 1.34 1.34 1.35 1.36 1.35 1.36 1.36 1.36 1.37 1.38 1.37 1.39 1.39 1.40 1.40 1.41 1.41 1.42 1.42 1.45 1.46 2.43 2.43 2.42 2.41 2.40 2.40 2.43 2.46 3.38 3.36 3.28 2.96 3.26 3.27 3.26 3.25 3.27  0 -1.738244 1.090434 3.133042 -1.738244 1.090434 3.133042 0.000000 0.000000 0.000000 0.000000 0.000000 1134864648.033183 b21 5.548999
ROBOTLASER1 0 -1.570796 3.150447 0.008727 80.000000 0.010000 0 361 0.92 0.93 0.93 0.89 0.93 0.87 0.85 0.96 0.94 81.91 81.91 1.40 2.64 1.42 1.47 1.37 1.38 1.38 1.38 1.38 1.38 1.42 1.43 1.40 1.39 1.40 1.40 1.40 1.40 1.40 1.40 1.43 1.44 1.44 1.42 1.43 1.43 1.44 1.44 1.47 1.44 81.91 3.26 2.26 2.31 3.32 2.31 3.32 2.35 3.36 3.36 3.42 3.41 3.46 3.47 3.51 3.51 3.56 3.56 3.46 3.48 3.50 3.50 3.33 3.32 3.39 81.91 3.80 3.82 3.84 3.81 2.24 2.22 3.61 3.62 81.91 81.91 2.13 2.29 2.02 2.04 1.92 1.94 1.83 1.85 1.75 1.76 1.76 1.77 1.77 1.78 1.79 1.79 1.80 1.81 1.28 1.41 1.23 1.24 1.24 1.24 1.24 1.25 1.31 1.28 1.26 1.27 1.28 1.30 1.31 1.32 5.06 5.07 5.13 5.14 1.27 1.29 5.29 5.30 5.33 5.33 5.39 5.40 5.46 5.46 4.27 4.26 4.20 4.22 4.20 4.21 4.24 4.27 81.91 81.91 81.91 81.91 81.91 81.91 4.38 4.40 3.61 3.64 3.45 3.46 3.38 3.39 3.29 3.32 3.24 3.25 3.25 3.26 3.31 3.32 3.37 3.38 3.45 3.46 3.53 3.54 81.91 81.91 3.30 3.31 81.91 81.91 81.91 81.91 7.00 7.02 7.02 7.03 6.59 6.60 6.50 6.51 6.48 6.49 6.49 6.49 6.56 6.56 5.87 5.88 5.79 5.79 5.54 5.55 5.65 5.66 5.69 5.71 5.85 5.86 5.84 5.85 4.00 4.00 3.88 3.89 3.91 3.95 3.90 3.92 3.91 3.92 6.94 6.95 6.91 6.92 6.93 6.93 7.20 7.25 7.60 7.60 7.47 7.47 7.36 7.36 7.22 7.22 7.12 7.13 7.01 7.01 6.91 6.91 6.82 6.83 6.84 6.84 6.80 2.90 2.78 2.76 2.70 2.69 2.63 2.63 2.58 2.58 2.55 2.55 2.55 2.55 2.56 2.57 2.67 2.70 2.88 2.81 2.84 2.83 2.82 2.82 2.88 5.78 5.84 5.85 5.94 5.95 6.03 6.08 6.27 6.30 6.45 6.45 6.55 6.56 6.66 6.67 9.42 9.42 9.12 9.12 5.50 5.51 5.49 5.49 5.46 5.47 5.44 5.45 5.43 5.43 5.41 5.41 5.39 5.40 5.38 3.07 2.94 2.88 2.80 2.80 2.81 2.81 2.82 2.82 2.82 2.83 2.84 2.85 2.85 2.84 2.78 2.61 2.30 2.26 2.17 2.17 2.19 2.19 2.19 2.20 2.21 2.21 2.23 2.23 2.24 2.25 2.25 2.25 2.02 1.96 1.91 1.90 1.86 1.84 1.80 1.79 1.75 1.74 1.71 1.67 1.49 1.31 1.28 0.75 0.72 0.76 0.68 0.67 0.66 0.67 0.67 0.73 81.91 81.91 81.91 81.91 81.91 81.91 81.91 81.91 81.91 0.60 0.60 0.58  0 -2.324763 1.155695 -3.083435 -2.324763 1.155695 -3.083435 0.000000 0.000000 0.000000 0.000000 0.000000 1134864648.882182 b21 6.397998
ROBOTLASER1 0 -1.570796 3.150447 0.008727 80.000000 0.010000 0 361 3.03 3.04 3.06 3.09 3.11 3.13 3.14 3.16 3.14 3.17 3.18 3.20 3.21 3.22 3.24 3.26 3.26 3.28 3.30 81.91 3.35 81.91 81.91 81.91 81.91 81.91 81.91 81.91 81.91 81.91 81.91 81.91 81.91 1.43 1.42 1.28 1.29 1.29 1.28 1.45 1.45 1.46 1.47 81.91 81.91 0.93 81.91 0.86 0.86 1.48 1.49 1.49 1.49 1.49 1.50 1.50 1.51 1.51 1.52 1.52 1.52 1.60 1.65 1.95 1.95 1.96 1.97 81.91 81.91 81.91 81.91 81.91 81.91 4.05 4.03 3.97 4.32 4.38 4.41 4.43 4.45 4.46 4.49 4.51 4.54 4.56 4.59 4.60 4.64 4.66 4.69 4.71 4.74 4.76 4.79 4.81 4.84 4.86 4.88 3.95 3.68 3.64 3.64 3.64 3.65 3.65 3.76 3.76 81.91 81.91 81.91 81.91 81.91 81.91 3.13 3.04 3.01 81.91 2.85 2.79 2.78 2.73 2.71 2.67 2.66 2.65 2.67 2.68 2.70 2.71 2.74 2.76 2.78 2.81 2.85 2.88 2.92 2.94 2.97 81.91 81.91 2.67 2.66 2.71 81.91 81.91 81.91 81.91 81.91 81.91 81.91 6.34 6.37 6.40 6.18 5.98 5.91 5.87 5.85 5.82 5.82 5.82 5.84 5.85 5.90 5.84 5.33 5.18 5.19 5.13 4.95 4.87 4.89 4.98 5.04 5.06 5.21 5.25 5.20 5.20 5.18 3.44 3.39 3.32 3.28 3.22 3.23 3.22 3.31 3.27 3.27 3.27 3.28 3.23 6.29 6.25 6.27 6.28 6.32 6.43 6.93 7.00 6.95 6.88 6.84 6.78 6.74 6.68 6.63 6.57 6.53 6.48 6.45 6.40 6.35 6.29 6.26 6.21 6.24 6.25 6.23 6.19 6.22 6.17 6.15 6.11 5.14 5.11 5.08 5.03 2.26 2.22 2.18 2.15 2.12 2.09 2.08 2.06 2.05 2.02 2.01 1.99 1.99 1.98 1.98 1.98 1.99 1.99 2.01 1.99 2.04 2.11 2.33 2.32 2.13 2.27 2.28 2.28 2.33 2.30 6.07 6.05 6.13 6.18 8.67 8.64 8.63 8.61 8.74 9.70 5.10 5.06 5.06 5.05 5.06 5.04 5.04 5.01 5.01 5.01 5.01 5.00 5.00 4.99 5.00 4.99 4.99 4.99 4.99 4.99 4.99 4.58 4.23 4.22 4.23 4.22 4.22 4.22 4.22 2.62 2.58 2.53 2.47 2.47 2.49 2.49 2.50 2.51 2.52 2.52 2.54 2.52 2.56 2.56 2.58 2.59 2.61 2.61 2.63 2.64 2.64 2.64 2.60 2.20 2.07 2.05 1.99 1.96 1.94 1.93 1.96 1.97 1.98 1.99 2.01 2.01 2.03 2.03 2.07 2.06 2.10 2.11 2.14 2.13 2.15 2.16 2.18 2.16 1.79 1.79 1.76 1.76 1.74 1.73 1.71 1.71 1.69 1.68 1.66 1.66 1.64  0 -2.983982 1.048576 -2.937759 -2.983982 1.048576 -2.937759 0.000000 0.000000 0.000000 0.000000 0.000000 1134864649.742180 b21 7.257996
ROBOTLASER1 0 -1.570796 3.150447 0.008727 80.000000 0.010000 0 361 3.06 3.06 3.08 3.08 1.39 1.39 1.38 1.37 1.37 1.36 1.36 1.35 1.35 1.34 1.34 1.34 1.33 1.33 1.33 1.33 1.33 1.32 1.32 1.32 1.31 1.31 1.31 1.30 1.30 1.30 1.30 1.29 1.29 1.29 1.28 1.28 1.28 1.28 1.28 1.28 1.38 1.51 1.61 1.77 1.82 1.83 1.69 1.67 1.67 1.67 1.66 1.66 1.65 1.65 1.65 1.65 1.66 1.66 1.73 81.91 81.91 81.91 3.39 3.38 3.38 3.39 3.44 3.45 3.46 3.50 81.91 81.91 81.91 81.91 81.91 81.91 81.91 81.91 81.91 81.91 81.91 81.91 81.91 81.91 81.91 3.73 3.60 3.59 3.71 3.83 3.95 3.94 3.98 3.97 4.00 4.00 4.03 4.03 4.07 4.07 4.10 4.10 4.13 4.13 4.17 4.16 4.20 4.20 4.23 4.24 4.28 4.26 4.31 4.30 4.33 4.32 3.21 3.19 3.14 3.13 3.14 3.13 3.21 3.21 3.71 3.69 81.91 81.91 81.91 81.91 81.91 81.91 81.91 81.91 81.91 81.91 81.91 81.91 2.06 2.04 2.08 2.06 2.09 2.09 2.11 2.11 2.14 2.12 2.17 2.16 2.21 2.20 2.24 2.23 2.28 2.27 2.35 2.32 81.91 81.91 2.03 2.02 2.07 2.07 81.91 81.91 81.91 81.91 81.91 81.91 81.91 81.91 81.91 81.91 81.91 81.91 5.65 5.64 5.69 5.68 5.64 5.65 5.28 5.27 5.21 5.20 5.16 5.15 5.16 5.15 5.18 5.17 5.23 5.22 4.54 4.55 4.50 4.49 4.33 4.34 4.21 4.20 4.31 4.29 4.37 4.35 4.66 4.65 4.70 4.69 4.61 4.60 6.99 4.58 2.72 2.72 2.64 2.64 2.57 2.57 2.64 2.57 2.69 2.68 5.79 5.78 2.64 2.63 2.60 2.60 5.98 5.90 6.42 6.40 3.02 6.31 6.20 6.20 6.11 6.10 2.68 6.02 2.62 5.94 2.68 2.76 2.62 2.63 2.72 5.70 2.75 5.64 2.80 5.61 2.86 5.63 5.60 5.59 5.56 5.56 5.50 5.50 4.64 4.77 4.50 4.50 4.44 4.45 4.40 4.40 4.38 4.39 4.33 4.35 4.32 4.31 4.29 4.29 4.26 4.25 1.73 1.77 1.65 1.67 1.63 1.64 1.60 1.60 1.57 1.58 1.55 1.55 1.54 1.54 1.52 1.52 1.51 1.51 1.50 1.50 1.49 1.49 1.49 1.48 1.50 1.49 1.52 1.51 1.55 1.53 1.59 1.55 1.79 1.66 81.91 1.80 81.91 81.91 4.65 4.66 4.64 4.64 4.65 4.64 4.65 4.65 4.65 4.65 4.66 4.65 4.67 4.66 4.68 4.67 4.69 4.68 4.57 4.62 3.91 3.92 3.93 3.92 3.95 3.95 3.96 3.96 3.98 3.97 4.00 3.99 4.02 4.01 4.04 4.03 4.06 4.05 4.08 4.07 2.40 2.41 2.35  0 -3.675353 0.950576 3.087467 -3.675353 0.950576 3.087467 0.000000 0.000000 0.000000 0.000000 0.000000 1134864650.592566 b21 8.108382
ROBOTLASER1 0 -1.570796 3.150447 0.008727 80.000000 0.010000 0 361 3.00 3.00 3.00 3.00 3.00 2.99 2.99 2.99 2.99 2.99 2.99 2.98 2.93 2.93 2.94 81.91 2.20 1.36 1.36 1.34 1.33 1.32 1.31 1.29 1.29 1.28 1.27 1.26 1.25 1.23 1.23 1.21 1.21 1.19 1.19 1.19 1.18 1.17 1.17 1.16 1.16 1.15 1.14 1.14 1.14 1.12 1.12 1.11 1.10 1.11 1.14 1.15 1.17 1.18 1.20 1.22 1.25 1.27 1.29 1.31 1.34 1.37 1.40 1.41 1.44 81.91 81.91 1.51 1.45 1.44 1.43 1.35 1.42 1.43 1.41 1.39 1.39 1.37 1.39 1.38 1.40 1.41 1.44 1.43 1.47 1.49 2.91 2.90 2.93 2.92 2.94 2.93 2.95 2.94 2.95 2.94 2.96 2.96 2.98 2.98 3.00 3.00 3.01 3.00 3.01 3.02 3.04 3.04 3.05 3.05 3.07 3.06 3.09 3.09 3.13 3.13 3.16 3.14 3.17 3.16 3.20 3.24 3.24 3.23 3.25 3.25 3.27 3.26 3.28 3.27 3.22 3.20 3.44 3.48 3.53 3.52 3.55 3.54 3.57 3.56 3.59 3.59 3.62 3.61 3.64 3.63 3.65 3.65 3.68 3.68 3.70 3.70 3.74 3.71 3.76 3.76 3.80 3.79 3.83 3.82 3.86 3.85 2.86 2.81 2.69 2.67 2.67 2.66 3.01 3.03 2.75 2.76 3.42 3.27 3.30 3.65 81.91 81.91 81.91 81.91 81.91 81.91 81.91 81.91 81.91 81.91 1.67 1.66 81.91 81.91 1.65 1.64 1.61 1.61 1.61 1.61 1.63 1.62 1.65 1.64 1.68 1.67 1.71 1.69 1.73 1.72 1.77 1.75 1.78 1.78 1.81 1.80 81.91 81.91 81.91 81.91 1.55 1.53 1.59 1.59 81.91 81.91 81.91 81.91 81.91 81.91 81.91 81.91 81.91 81.91 81.91 81.91 81.91 5.21 5.21 5.21 5.26 5.24 4.82 4.80 4.73 4.72 4.69 4.68 4.67 4.67 4.68 4.67 4.71 4.70 4.76 4.76 4.22 4.19 4.05 4.04 3.98 3.97 3.80 3.78 3.76 3.75 3.91 3.89 3.94 3.94 4.23 4.22 4.25 4.24 4.18 4.17 4.14 4.14 6.71 6.70 6.79 6.78 6.74 6.69 2.30 2.30 2.25 2.24 2.19 2.19 2.16 2.15 5.32 2.16 2.31 2.29 2.31 2.30 2.25 2.22 2.27 2.27 2.22 2.22 5.70 5.69 2.64 2.64 5.55 5.55 5.49 5.48 2.36 2.35 2.33 2.32 2.34 2.36 2.27 2.27 2.36 2.29 2.34 2.29 2.41 2.39 2.48 2.46 2.53 2.53 5.16 5.15 4.25 4.25 4.23 4.22 4.19 4.19 4.16 4.16 4.14 4.13 4.09 4.10 4.09 4.09 4.07 4.08 4.04 4.04 4.04 4.03 4.02 4.02 4.02 4.01 4.15 4.15 4.33 4.28 4.17 4.15 4.81 4.80 81.91  0 -4.171551 1.091040 2.623164 -4.171551 1.091040 2.623164 0.000000 0.000000 0.000000 0.000000 0.000000 1134864651.233182 b21 8.748998
ROBOTLASER1 0 -1.570796 3.150447 0.008727 80.000000 0.010000 0 361 1.21 1.14 1.15 1.11 1.11 1.05 1.06 1.00 1.00 0.96 0.97 0.92 0.91 0.90 0.91 0.91 0.92 0.92 0.93 0.93 0.94 0.94 0.94 0.95 0.95 0.96 0.96 0.97 0.97 0.99 0.99 1.01 1.01 1.04 1.04 1.04 1.04 1.06 1.06 1.07 1.07 1.08 1.10 1.11 1.11 1.10 1.11 1.21 1.24 2.77 2.78 2.77 2.77 1.14 1.12 1.11 1.11 1.08 1.08 1.03 1.03 1.00 1.01 1.00 1.00 1.01 1.01 1.01 1.02 1.02 1.02 1.03 1.02 1.02 1.03 1.04 1.05 1.04 2.36 2.33 2.34 2.36 2.39 2.65 2.64 2.61 2.65 2.65 2.67 2.67 2.70 2.69 2.70 2.69 2.69 2.36 2.38 2.44 2.44 2.42 2.44 2.41 2.44 2.42 2.44 2.42 2.45 2.44 2.45 2.42 2.44 2.42 2.42 2.42 2.42 2.41 2.44 2.44 2.46 2.46 2.47 2.46 2.47 2.46 2.48 2.47 2.48 2.47 2.49 2.49 2.49 2.48 2.49 2.49 2.51 2.52 2.53 2.53 2.54 2.54 2.56 2.55 2.57 2.56 2.58 2.58 2.60 2.59 2.61 2.61 2.63 2.62 2.64 2.64 2.65 2.66 2.63 2.60 2.57 2.86 2.91 2.91 2.93 2.92 2.94 2.94 2.97 2.95 2.98 2.97 2.99 2.97 2.99 2.99 3.01 3.01 3.04 3.03 3.05 3.05 3.07 3.07 3.08 3.09 3.11 3.11 3.13 3.13 3.16 3.15 3.18 3.17 3.21 3.20 3.22 3.22 2.20 2.03 2.04 2.03 2.04 2.03 2.04 2.02 2.16 2.14 2.11 2.11 81.91 2.75 2.58 2.67 81.91 81.91 81.91 81.91 81.91 81.91 81.91 81.91 81.91 81.91 81.91 81.91 81.91 81.91 81.91 81.91 81.91 81.91 81.91 81.91 81.91 81.91 81.91 81.91 81.91 81.91 81.91 81.91 81.91 81.91 81.91 81.91 81.91 81.91 1.03 1.03 1.06 1.05 1.06 1.04 1.07 1.07 1.09 1.09 1.10 1.11 1.12 1.12 1.15 1.15 1.17 1.17 1.20 1.19 1.23 1.24 81.91 81.91 81.91 81.91 81.91 81.91 81.91 81.91 81.91 81.91 81.91 81.91 81.91 81.91 1.04 1.04 1.05 1.05 4.26 4.25 4.23 4.23 4.24 4.24 4.26 4.27 4.29 4.33 4.36 4.32 4.15 4.23 3.69 3.64 3.64 3.63 3.64 3.59 3.54 3.56 3.38 3.37 3.38 3.39 3.53 3.52 3.77 3.88 3.93 3.91 3.88 3.88 3.81 3.82 6.42 6.09 6.02 6.28 5.27 5.11 5.14 5.13 5.08 5.04 5.17 5.20 5.17 5.19 5.26 5.34 5.74 5.72 5.69 5.67 2.35 2.13 2.06 2.05 2.02 2.02 2.00 2.00 1.97 1.97 1.96 1.96 1.98 2.01 2.10 2.11 5.23 5.21 2.15  0 -4.667641 1.492210 2.324922 -4.667641 1.492210 2.324922 0.000000 0.000000 0.000000 0.000000 0.000000 1134864652.082202 b21 9.598018
ROBOTLASER1 0 -1.570796 3.150447 0.008727 80.000000 0.010000 0 361 2.84 0.81 0.82 0.81 0.82 0.80 0.80 0.80 0.81 0.81 0.81 0.80 0.79 0.78 0.78 0.80 0.81 0.81 0.81 0.81 0.80 0.80 0.80 0.81 0.81 2.65 2.64 2.63 2.62 2.62 2.61 2.60 2.59 2.58 2.57 2.57 2.56 2.55 2.55 2.54 2.53 2.53 2.51 2.51 2.50 2.50 2.49 2.48 2.48 2.46 2.46 2.45 2.44 2.44 2.42 2.41 2.42 2.39 2.27 2.23 2.22 81.91 81.91 81.91 2.04 2.02 1.99 2.01 1.98 2.00 2.16 2.16 2.14 2.19 2.21 2.19 2.18 2.18 2.29 2.29 2.29 2.28 2.25 2.00 1.93 2.02 2.04 2.04 2.04 2.03 2.03 2.02 2.03 2.01 2.01 1.99 2.01 2.00 2.01 1.98 1.98 1.97 1.98 1.97 1.97 1.97 1.96 1.95 1.95 1.95 1.95 1.95 1.93 1.93 1.93 1.92 1.93 1.92 1.94 1.93 1.93 1.92 1.93 1.92 1.92 1.93 1.93 1.92 1.94 1.94 1.95 1.94 1.95 1.95 1.96 1.96 1.97 1.96 1.97 1.97 1.99 1.98 1.99 1.99 2.01 2.00 2.01 2.01 2.02 2.01 2.03 2.02 2.03 2.04 2.05 2.04 2.06 2.05 2.07 2.06 2.09 2.05 2.03 1.99 2.28 2.28 2.34 2.33 2.35 2.34 2.36 2.35 2.37 2.36 2.37 2.37 2.39 2.38 2.40 2.39 2.41 2.40 2.42 2.42 2.45 2.42 2.45 2.44 2.47 2.46 2.48 2.48 2.50 2.50 2.50 2.51 2.54 2.53 2.55 2.55 2.57 2.57 2.59 2.59 2.61 2.61 2.63 2.63 2.65 2.65 2.68 2.68 2.71 2.70 2.71 2.71 1.49 1.47 1.50 1.48 1.52 1.49 1.49 1.47 1.47 1.46 1.58 1.57 1.55 1.55 1.98 1.98 81.91 81.91 81.91 81.91 81.91 81.91 81.91 81.91 81.91 81.91 81.91 81.91 81.91 81.91 1.67 1.65 1.61 1.61 1.60 1.60 1.60 1.60 1.62 1.62 1.65 1.64 81.91 81.91 81.91 81.91 81.91 81.91 81.91 81.91 81.91 81.91 81.91 81.91 0.87 0.92 81.91 81.91 81.91 81.91 81.91 81.91 81.91 81.91 81.91 81.91 81.91 81.91 81.91 81.91 81.91 81.91 81.91 81.91 81.91 81.91 81.91 81.91 81.91 81.91 81.91 81.91 81.91 81.91 81.91 81.91 81.91 81.91 81.91 81.91 81.91 81.91 81.91 81.91 81.91 81.91 81.91 81.91 81.91 81.91 4.02 4.04 4.03 4.05 4.13 4.13 4.20 4.29 4.20 4.63 3.65 3.64 3.42 3.42 3.42 3.42 3.42 3.42 3.34 3.34 3.37 3.34 3.20 3.20 3.22 3.22 3.38 3.37 3.80 3.79 3.74 3.74 3.68 3.67 5.07 5.07 5.08 5.08 5.00 5.09 5.32 5.21 81.91 81.91 0.83  0 -5.021950 1.941620 2.237117 -5.021950 1.941620 2.237117 0.000000 0.000000 0.000000 0.000000 0.000000 1134864652.943204 b21 10.459020
ROBOTLASER1 0 -1.570796 3.150447 0.008727 80.000000 0.010000 0 361 1.06 1.06 1.06 1.06 1.05 1.06 1.04 1.05 1.03 1.04 1.03 1.03 1.02 1.03 1.02 1.02 0.94 0.93 0.82 0.82 0.82 0.82 0.79 0.79 0.80 0.80 0.78 0.78 0.77 0.77 0.78 0.77 0.76 0.76 0.75 0.76 0.76 0.77 0.81 0.82 0.85 0.84 0.90 0.89 81.91 81.91 2.92 2.93 2.90 2.91 2.87 2.89 2.85 2.85 2.82 2.83 2.78 2.78 2.75 2.76 2.73 2.72 2.70 2.71 2.67 2.67 2.64 2.65 2.61 2.62 2.59 2.59 2.57 2.57 2.55 2.55 2.52 2.53 2.50 2.50 2.47 2.48 2.44 2.45 2.41 2.42 2.39 2.39 2.37 2.37 2.34 2.36 2.33 2.33 2.31 2.31 2.29 2.29 2.27 2.27 2.25 2.25 2.23 2.24 2.22 2.22 2.11 2.13 81.91 81.91 81.91 81.91 81.91 81.91 1.80 1.79 1.75 1.77 1.99 2.02 2.00 1.99 2.03 2.03 2.04 2.03 2.01 2.02 2.05 2.01 2.02 2.03 1.67 1.76 1.73 1.71 1.78 1.76 81.91 81.91 81.91 81.91 81.91 81.91 1.83 81.91 1.76 1.79 1.74 1.77 1.74 1.73 1.70 1.71 1.69 1.70 1.68 1.67 1.67 1.67 1.66 1.66 1.65 1.65 1.64 1.63 1.65 1.64 1.64 1.64 1.64 1.63 1.63 1.62 1.62 1.62 1.61 1.62 1.61 1.62 1.60 1.60 1.60 1.59 1.60 1.59 1.59 1.59 1.59 1.59 1.59 1.59 1.60 1.59 1.61 1.60 1.61 1.61 1.62 1.61 1.62 1.61 1.63 1.62 1.64 1.63 1.65 1.65 1.65 1.65 1.66 1.63 1.67 1.66 1.67 1.65 1.69 1.67 1.69 1.67 1.69 1.69 1.71 1.69 1.71 1.70 1.69 1.70 1.61 1.66 1.94 1.59 1.97 1.96 1.98 1.97 1.99 1.98 2.00 1.99 2.01 2.00 2.02 2.01 2.03 2.02 2.05 2.03 2.06 2.04 2.07 2.06 2.08 2.07 2.08 2.07 2.11 2.08 2.11 2.10 2.12 2.11 2.15 2.13 2.15 2.15 2.18 2.16 2.19 2.18 2.22 2.20 2.24 2.22 2.26 2.24 2.28 2.26 2.30 2.29 2.33 2.31 2.35 2.33 2.37 2.36 2.40 2.38 2.42 2.40 2.46 2.44 2.49 2.47 2.51 2.50 2.53 2.52 81.91 2.47 1.24 81.91 81.91 1.23 81.91 81.91 81.91 81.91 81.91 81.91 1.65 1.74 81.91 1.66 81.91 81.91 81.91 81.91 81.91 81.91 81.91 81.91 2.54 81.91 81.91 2.53 81.91 81.91 81.91 81.91 1.45 81.91 1.41 1.42 1.39 1.40 1.38 1.39 1.39 1.38 1.41 1.39 1.42 1.41 1.55 1.42 1.61 1.56 81.91 81.91 81.91 81.91 81.91 81.91 81.91 81.91 81.91 81.91 81.91 81.91 81.91  0 -5.173494 2.260276 1.667352 -5.173494 2.260276 1.667352 0.000000 0.000000 0.000000 0.000000 0.000000 1134864653.581187 b21 11.097003
ROBOTLASER1 0 -1.570796 3.150447 0.008727 80.000000 0.010000 0 361 3.58 3.37 3.41 3.40 9.88 9.85 9.90 9.88 9.93 9.91 9.97 9.94 10.02 9.98 10.06 10.03 10.11 10.07 1.78 8.69 1.79 1.76 8.23 8.32 1.80 1.87 1.74 1.79 81.91 1.74 81.91 81.91 1.82 1.94 1.83 1.83 11.87 81.91 1.16 11.86 1.15 1.16 1.13 1.15 1.11 1.13 1.10 1.11 1.08 1.08 1.07 1.07 1.06 1.07 1.05 1.06 1.04 1.05 1.03 1.03 1.02 1.02 1.01 1.01 1.00 1.01 0.86 0.97 0.76 0.77 0.75 0.75 0.75 0.76 0.74 0.73 0.70 0.72 0.69 0.70 0.70 0.70 0.69 0.68 0.70 0.68 0.72 0.71 0.73 0.71 0.75 0.73 0.77 0.75 0.80 0.78 0.81 0.80 81.91 0.82 0.97 81.91 1.02 0.94 81.91 81.91 1.94 81.91 2.01 1.92 81.91 1.99 81.91 81.91 2.85 2.89 2.83 2.85 2.79 2.81 2.75 2.78 2.72 2.74 2.69 2.71 2.65 2.68 2.63 2.65 2.60 2.62 2.57 2.59 2.54 2.55 2.52 2.53 2.49 2.50 2.46 2.48 2.41 2.44 2.39 2.41 2.36 2.38 2.34 2.35 2.32 2.33 2.29 2.31 2.27 2.28 2.24 2.26 2.22 2.23 2.18 2.21 2.17 2.17 2.16 2.16 2.14 2.15 2.12 2.13 2.09 2.11 2.07 2.08 2.05 2.06 1.98 2.05 81.91 1.94 81.91 81.91 81.91 81.91 1.66 81.91 1.61 1.62 1.61 1.61 1.85 1.83 1.80 1.85 1.86 1.84 1.86 1.85 1.84 1.85 1.84 1.83 1.84 1.84 1.50 1.83 1.52 1.49 1.58 1.51 1.56 1.57 81.91 1.65 81.91 81.91 81.91 81.91 81.91 81.91 1.64 81.91 81.91 81.91 1.60 81.91 1.61 1.58 1.52 81.91 1.49 1.51 1.48 1.48 1.48 1.47 1.47 1.47 1.47 1.46 1.47 1.47 1.46 1.45 1.46 1.45 1.45 1.46 1.44 1.44 1.43 1.43 1.42 1.42 1.42 1.41 1.42 1.41 1.41 1.41 1.41 1.41 1.41 1.41 1.41 1.41 1.41 1.41 1.42 1.41 1.42 1.42 1.43 1.42 1.44 1.42 1.44 1.43 1.45 1.44 1.46 1.45 1.46 1.45 1.47 1.46 1.46 1.46 1.47 1.46 1.47 1.48 1.49 1.47 1.50 1.48 1.52 1.49 1.53 1.52 1.58 1.53 1.57 1.59 81.91 1.58 81.91 81.91 1.60 81.91 1.54 1.59 1.49 1.54 1.43 1.48 1.82 1.44 1.83 1.82 1.84 1.83 1.85 1.84 1.87 1.85 1.88 1.86 1.89 1.87 1.91 1.89 1.91 1.90 1.93 1.91 1.93 1.93 1.95 1.93 1.97 1.95 1.98 1.97 2.00 1.98 2.03 1.99 2.04 2.02 2.03 2.04 2.08 2.03 2.10 2.09 2.13 2.11 2.15 2.13 2.18  0 -5.176948 2.435078 1.005776 -5.176948 2.435078 1.005776 0.000000 0.000000 0.000000 0.000000 0.000000 1134864654.012229 b21 11.528045
ROBOTLASER1 0 -1.570796 3.150447 0.008727 80.000000 0.010000 0 361 5.63 5.73 5.57 5.62 5.39 5.57 4.13 4.19 4.09 4.13 4.16 4.08 4.28 4.17 4.42 4.27 4.57 4.42 5.01 4.66 4.95 5.01 6.03 4.96 4.10 6.04 4.01 4.03 3.98 3.99 4.12 3.98 4.23 4.14 4.35 4.25 5.69 4.35 4.02 5.69 3.99 4.06 3.97 3.98 3.97 3.96 3.95 3.96 3.94 3.95 3.93 3.93 3.93 3.93 3.91 3.93 3.72 3.92 3.67 3.78 3.65 3.67 3.63 3.65 4.16 3.63 5.54 4.18 5.66 5.55 5.40 5.67 5.37 5.39 3.51 5.39 3.37 3.49 3.43 3.38 3.62 3.43 3.36 3.61 3.38 3.40 9.81 3.37 9.83 9.81 9.86 9.83 9.89 9.86 1.72 9.90 1.73 1.72 1.74 1.73 81.91 1.74 1.76 81.91 1.73 1.76 1.76 81.91 1.87 1.72 1.79 1.84 1.74 1.80 1.13 1.73 1.07 1.11 1.06 1.07 1.04 1.06 1.03 1.04 1.01 1.02 0.99 1.00 0.98 0.99 0.97 0.97 0.96 0.97 0.96 0.96 0.94 0.95 0.81 0.94 0.70 0.76 0.67 0.69 0.67 0.67 0.65 0.66 0.63 0.64 0.62 0.64 0.62 0.62 0.61 0.61 0.60 0.60 0.63 0.58 0.62 0.62 0.63 0.62 0.65 0.63 0.65 0.65 0.67 0.66 0.69 0.68 0.71 0.68 0.80 0.70 0.79 0.80 81.91 0.77 0.79 81.91 3.12 0.78 81.91 3.11 81.91 81.91 81.91 81.91 81.91 81.91 81.91 81.91 81.91 81.91 81.91 81.91 2.76 2.84 2.73 2.77 2.69 2.73 2.65 2.69 2.62 2.65 2.59 2.62 2.56 2.58 2.54 2.56 2.51 2.54 2.48 2.50 2.44 2.47 2.41 2.44 2.38 2.40 2.35 2.37 2.32 2.35 2.30 2.32 2.27 2.29 2.25 2.27 2.22 2.24 2.19 2.22 2.17 2.19 2.15 2.17 2.13 2.15 2.10 2.13 2.08 2.10 2.04 2.08 2.05 2.04 2.03 2.04 2.00 2.02 1.99 2.00 1.97 1.98 1.95 1.96 1.94 1.94 1.81 1.94 1.77 1.81 81.91 1.76 81.91 81.91 81.91 81.91 1.52 81.91 1.49 1.52 1.46 1.48 1.58 1.46 1.58 1.57 1.63 1.58 1.65 1.62 1.65 1.64 1.64 1.64 1.72 1.61 1.71 1.72 1.40 1.71 81.91 81.91 1.42 81.91 1.45 1.41 81.91 1.45 81.91 81.91 81.91 81.91 81.91 81.91 81.91 81.91 81.91 81.91 1.44 81.91 1.41 1.47 1.41 1.41 1.38 1.40 1.38 1.38 1.38 1.38 1.37 1.38 1.38 1.38 1.37 1.37 1.36 1.36 1.36 1.36 1.36 1.36 1.35 1.36 1.35 1.35 1.34 1.34 1.34 1.34 1.34 1.34 1.34 1.34 1.35 1.34 1.35 1.34 1.36 1.34 1.36 1.35 1.36  0 -5.090663 2.525071 0.256792 -5.090663 2.525071 0.256792 0.000000 0.000000 0.000000 0.000000 0.000000 1134864654.433515 b21 11.949331
ROBOTLASER1 0 -1.570796 3.150447 0.008727 80.000000 0.010000 0 361 5.72 5.75 5.78 5.72 5.76 5.78 2.86 5.76 2.75 2.86 1.30 2.74 1.28 1.30 2.58 1.29 2.56 2.58 2.56 2.57 2.56 2.56 2.69 2.56 2.76 2.69 2.75 2.75 4.91 2.76 4.92 4.91 4.93 4.91 4.93 4.93 4.94 4.93 4.95 4.95 4.99 4.93 6.53 5.01 8.63 6.53 8.53 8.63 8.44 8.52 8.51 8.43 10.44 8.50 10.32 10.44 8.17 10.37 5.81 8.18 5.83 5.81 5.87 5.83 5.89 5.87 5.94 5.90 5.98 5.93 6.02 5.98 6.06 6.02 6.12 6.06 3.29 6.12 2.92 3.17 2.89 2.92 3.00 2.89 3.00 3.00 3.01 3.01 2.96 3.02 2.91 2.96 2.95 2.91 2.95 2.95 5.89 2.94 5.81 5.89 5.70 5.81 5.59 5.69 5.49 5.58 4.15 5.48 4.10 4.23 4.16 4.10 4.27 4.15 4.41 4.25 4.56 4.41 5.06 4.59 4.97 5.06 6.05 4.97 4.06 6.05 3.98 4.05 3.97 3.98 4.03 3.97 4.18 4.04 4.31 4.18 4.42 4.31 5.66 4.44 3.96 5.65 3.94 3.96 3.93 3.94 3.92 3.94 3.92 3.92 3.91 3.91 3.90 3.90 3.88 3.89 3.91 3.88 3.68 3.84 3.63 3.67 3.61 3.63 4.04 3.61 5.47 81.91 5.55 5.46 5.65 5.55 5.32 5.64 3.51 5.32 3.36 3.52 3.41 3.35 5.84 3.41 3.30 5.85 3.40 3.29 3.34 3.38 9.76 3.33 9.78 9.76 9.82 9.78 9.85 9.81 81.91 9.85 1.64 81.91 81.91 1.66 1.68 81.91 81.91 1.68 1.63 81.91 81.91 1.67 1.71 81.91 1.09 1.71 1.02 1.10 1.00 1.02 0.98 1.00 0.97 0.98 0.96 0.97 0.95 0.96 0.93 0.94 0.92 0.93 0.91 0.92 0.90 0.91 0.89 0.90 0.82 0.88 0.63 0.82 0.62 0.64 0.61 0.61 0.59 0.61 0.59 0.59 0.57 0.58 0.57 0.57 0.55 0.56 0.55 0.55 0.54 0.55 0.60 0.53 0.55 0.64 0.56 0.55 0.57 0.55 0.58 0.57 0.60 0.58 0.61 0.59 0.62 0.60 0.64 0.61 0.73 0.63 0.74 0.71 81.91 0.73 0.76 81.91 3.05 0.75 2.99 3.05 2.96 2.99 2.93 2.95 2.92 2.93 81.91 2.91 1.81 81.91 81.91 1.80 2.71 81.91 2.69 2.71 2.65 2.69 2.61 2.65 2.58 2.61 2.54 2.58 2.52 2.54 2.49 2.52 2.46 2.49 2.42 2.46 2.39 2.41 2.36 2.40 2.35 2.37 2.31 2.34 2.29 2.32 2.25 2.28 2.23 2.25 2.20 2.23 2.18 2.20 2.16 2.18 2.14 2.16 2.12 2.14 2.09 2.12 2.07 2.09 2.05 2.07 2.03 2.05 2.01 2.03 1.99 2.01 1.97 1.99 1.96 1.97 1.95  0 -5.026007 2.562397 -0.640122 -5.026007 2.562397 -0.640122 0.000000 0.000000 0.000000 0.000000 0.000000 1134864654.861180 b21 12.376996
ROBOTLASER1 0 -1.570796 3.150447 0.008727 80.000000 0.010000 0 361 81.91 81.91 81.91 81.91 81.91 81.91 81.91 81.91 81.91 81.91 81.91 81.91 81.91 81.91 4.38 4.32 4.61 4.33 0.99 1.01 1.21 1.10 81.91 3.97 81.91 81.91 81.91 81.91 81.91 81.91 81.91 81.91 81.91 81.91 81.91 81.91 81.91 81.91 81.91 81.91 81.91 81.91 81.91 81.91 81.91 81.91 81.91 81.91 81.91 81.91 81.91 81.91 0.96 0.96 0.96 0.94 5.93 5.92 5.87 5.88 1.13 5.86 5.83 1.06 5.79 5.80 5.75 5.76 5.73 5.74 5.72 5.72 5.77 5.78 2.86 2.90 1.31 1.37 1.28 1.29 2.58 2.61 2.56 2.57 2.56 2.56 2.54 2.55 2.55 2.54 2.67 2.58 2.74 2.72 2.72 2.72 4.88 4.89 4.89 4.88 4.90 4.88 4.91 4.91 4.91 4.91 3.07 3.10 4.88 4.90 4.25 4.93 6.52 4.25 10.26 8.59 10.30 8.48 8.41 4.24 8.54 8.43 10.41 10.40 8.48 10.42 5.82 8.22 5.78 5.78 5.81 5.80 5.84 5.83 5.88 5.87 5.91 5.90 5.96 5.94 5.99 5.98 6.04 6.02 6.06 6.07 2.92 2.95 2.87 2.87 2.88 2.86 2.89 2.88 2.96 2.89 2.98 2.97 2.91 2.92 2.88 2.87 2.91 2.90 2.95 2.92 5.85 5.83 5.75 5.80 5.63 5.67 5.53 5.55 4.32 5.51 4.09 4.09 4.04 4.05 4.13 4.07 4.22 4.19 4.35 4.29 4.60 4.44 4.96 5.01 4.91 4.92 5.99 5.05 3.96 4.08 3.93 3.95 3.90 3.92 3.98 3.88 4.12 4.08 4.26 4.23 5.60 4.36 3.97 5.62 3.92 3.92 3.91 3.91 3.90 3.90 3.88 3.88 3.86 3.86 3.85 3.85 3.84 3.85 3.83 3.83 3.67 3.84 3.64 3.64 3.63 3.62 3.60 3.61 81.91 3.64 4.12 4.12 5.49 5.44 5.61 5.56 5.27 5.33 5.36 5.25 3.29 3.31 3.41 3.37 3.51 3.36 3.30 3.47 3.40 3.36 3.27 3.27 9.71 9.71 9.73 9.72 9.75 9.75 9.79 9.78 9.81 9.81 81.91 81.91 81.91 81.91 81.91 81.91 81.91 81.91 81.91 81.91 81.91 81.91 81.91 81.91 81.91 81.91 81.91 81.91 0.95 0.93 0.94 0.95 0.95 0.94 0.92 0.93 0.91 0.91 0.90 0.91 0.89 0.89 0.88 0.88 0.86 0.86 0.85 0.86 0.85 0.85 0.84 0.84 0.82 0.82 0.75 0.80 0.59 0.62 0.58 0.58 0.56 0.57 0.56 0.56 0.54 0.55 0.53 0.54 0.52 0.52 0.51 0.52 0.50 0.51 0.50 0.50 0.50 0.50 0.50 0.49 0.51 0.51 0.51 0.51 0.52 0.52 0.53 0.53 0.56 0.54 0.56 0.56 0.59 0.58 0.60 0.59 0.62 0.61 81.91 81.91 81.91 81.91 0.73  0 -4.968683 2.541938 -1.260774 -4.968683 2.541938 -1.260774 0.000000 0.000000 0.000000 0.000000 0.000000 1134864655.291187 b21 12.807003
ROBOTLASER1 0 -1.570796 3.150447 0.008727 80.000000 0.010000 0 361 81.91 81.91 81.91 81.91 81.91 81.91 81.91 81.91 81.91 81.91 81.91 81.91 81.91 81.91 81.91 81.91 81.91 81.91 81.91 81.91 81.91 81.91 81.91 81.91 81.91 81.91 81.91 81.91 81.91 81.91 81.91 81.91 81.91 4.06 4.08 4.12 4.15 4.13 4.21 3.98 4.09 3.77 3.68 3.49 3.47 3.47 3.48 3.48 3.47 3.39 3.40 3.42 3.37 3.25 3.25 3.25 3.28 3.41 3.44 3.82 3.84 3.80 3.80 3.75 3.75 5.07 5.09 5.06 5.08 5.05 5.16 81.91 81.91 0.89 0.88 81.91 0.96 5.69 5.69 5.63 5.62 5.58 5.57 5.53 5.53 5.49 5.49 5.46 5.44 5.42 5.42 5.39 5.39 5.35 5.35 2.41 2.40 2.33 2.32 2.13 2.13 2.12 2.11 2.10 2.10 2.08 2.08 2.06 2.06 2.06 2.08 2.10 2.18 2.45 2.64 2.26 2.26 2.23 2.24 2.24 4.45 4.42 4.42 4.41 4.42 4.39 4.41 4.39 4.40 4.38 4.40 4.37 4.39 2.53 4.39 4.37 4.39 4.29 3.99 4.38 4.38 4.58 5.24 81.91 5.98 3.70 3.72 9.70 9.73 9.75 3.72 81.91 81.91 7.91 8.01 9.84 9.85 9.65 7.95 7.78 5.28 5.24 5.24 5.25 5.27 5.28 5.30 5.31 5.33 5.34 5.37 5.38 5.40 5.41 5.44 5.45 5.47 5.49 5.51 5.54 2.43 2.34 2.32 2.30 2.30 2.28 2.28 2.27 2.27 2.28 2.27 2.30 2.30 2.31 2.30 2.31 2.32 2.29 2.29 2.29 2.30 2.31 2.33 2.35 2.39 5.25 5.21 5.15 5.10 5.05 5.00 4.98 4.98 4.81 3.77 3.58 3.57 3.53 3.55 3.49 3.53 3.60 3.65 3.68 3.71 3.82 3.89 4.02 4.30 4.45 4.43 4.42 4.43 5.49 5.48 5.45 3.89 3.60 3.45 3.43 3.44 3.43 3.40 3.39 3.47 3.59 3.71 3.76 3.87 3.88 5.15 5.13 5.20 5.17 3.49 3.45 3.46 3.44 3.45 3.44 3.44 3.43 3.43 3.42 3.42 3.42 3.42 3.43 3.43 3.43 3.43 3.42 3.44 3.40 3.29 3.27 3.24 3.23 3.23 3.23 3.22 3.21 3.24 3.79 5.23 5.25 4.97 4.92 4.90 4.97 5.48 5.34 5.56 5.56 5.54 5.44 3.11 3.08 2.94 2.95 3.07 3.05 3.11 3.16 3.11 2.98 3.11 3.15 3.01 3.00 9.62 9.64 9.67 9.69 9.71 9.74 9.77 8.20 7.91 7.94 7.99 7.98 8.18 7.91 8.02 10.19 10.24 10.28 10.33 10.35 10.36 10.38 12.63 12.39 12.21 11.58 11.51 11.28 11.00 10.87 10.76 10.75 1.46 1.46 9.47 9.34 9.21 9.07 8.98 8.87 1.54 1.54 1.59 1.61 1.48 1.43 1.40 1.39 1.40 1.42 2.62  0 -4.985134 1.970721 -1.553595 -4.985134 1.970721 -1.553595 0.000000 0.000000 0.000000 0.000000 0.000000 1134864656.571223 b21 14.087039
ROBOTLASER1 0 -1.570796 3.150447 0.008727 80.000000 0.010000 0 361 81.91 81.91 81.91 81.91 81.91 81.91 81.91 81.91 81.91 81.91 81.91 81.91 81.91 81.91 81.91 81.91 81.91 81.91 81.91 81.91 81.91 81.91 81.91 0.69 0.69 81.91 81.91 81.91 3.94 3.94 3.90 3.90 3.89 3.89 3.88 3.88 3.90 3.90 3.94 3.93 4.00 3.99 3.89 3.91 3.79 4.06 3.30 3.30 3.30 3.29 3.28 3.28 3.22 3.20 3.05 3.04 3.05 3.04 3.15 3.12 3.21 3.19 3.53 3.50 3.55 3.54 3.51 3.51 3.47 3.46 5.37 5.34 5.89 5.90 4.71 4.70 4.70 4.70 4.69 4.68 4.79 4.79 4.74 4.73 4.88 4.81 5.40 5.40 5.34 5.35 5.29 5.29 5.24 5.24 2.08 2.08 1.86 1.84 1.75 1.74 1.73 1.72 1.71 1.70 1.70 1.69 1.68 1.67 1.67 1.66 1.68 1.66 1.79 1.77 1.81 1.79 1.82 1.81 1.82 1.82 1.81 1.80 1.79 1.78 4.86 4.86 4.84 4.83 4.20 4.38 3.99 3.98 3.98 3.97 3.96 3.96 3.96 3.95 2.07 2.07 3.94 3.93 3.94 3.94 3.92 3.92 3.91 3.91 3.91 3.89 3.77 3.84 3.87 3.87 3.91 3.89 4.72 4.63 81.91 4.89 5.48 5.47 3.20 3.20 9.22 9.21 9.28 9.25 7.82 7.81 7.40 7.40 9.34 7.47 9.28 9.32 4.79 7.39 4.71 4.71 4.74 4.72 4.76 4.73 4.77 4.75 4.80 4.78 4.83 4.81 4.86 4.83 4.89 4.87 4.92 4.90 4.95 4.93 5.00 4.97 1.86 1.93 1.80 1.80 1.77 1.77 1.76 1.75 1.75 1.74 1.74 1.73 1.74 1.73 1.74 1.73 1.74 1.73 1.75 1.73 1.76 1.75 1.77 1.76 1.78 1.77 1.80 1.78 1.82 1.80 1.87 1.84 4.52 1.87 4.50 4.48 4.34 4.41 4.31 4.28 3.11 3.17 3.08 3.08 3.06 3.05 3.04 3.01 3.18 3.14 3.22 3.21 3.41 3.37 3.70 3.53 3.95 3.95 4.00 3.95 5.11 4.99 3.90 3.90 3.43 3.92 3.06 3.89 3.01 3.01 3.01 3.00 2.98 2.99 81.91 2.96 81.91 81.91 3.47 81.91 5.42 4.77 5.46 5.45 5.46 5.45 3.09 3.08 3.10 3.09 3.08 3.09 3.08 3.08 3.08 3.08 3.08 3.08 3.09 3.08 3.09 3.08 3.09 3.08 3.09 3.08 3.22 3.10 3.01 4.59 2.96 2.93 2.94 2.92 2.94 2.93 2.93 2.93 4.61 3.02 5.09 5.11 5.17 5.36 5.24 5.18 5.15 5.18 5.24 9.25 9.32 5.27 7.53 7.78 2.87 2.86 2.73 2.79 2.91 2.76 2.80 2.88 2.79 2.79 2.83 2.80 2.84 2.84 2.82 2.83 7.92 7.79 10.16 10.13 10.23 10.23 12.46 10.27 12.08 12.21 11.47  0 -4.988370 1.440760 -1.722116 -4.988370 1.440760 -1.722116 0.000000 0.000000 0.000000 0.000000 0.000000 1134864657.211181 b21 14.726997
ROBOTLASER1 0 -1.570796 3.150447 0.008727 80.000000 0.010000 0 361 0.88 0.88 0.88 0.88 0.90 0.88 0.88 0.89 0.91 0.91 0.92 0.93 1.02 81.91 1.01 81.91 81.91 81.91 81.91 81.91 81.91 81.91 81.91 81.91 81.91 0.69 0.62 0.63 0.68 81.91 81.91 81.91 81.91 81.91 81.91 81.91 81.91 81.91 81.91 81.91 81.91 81.91 81.91 81.91 81.91 81.91 81.91 81.91 81.91 81.91 81.91 81.91 81.91 81.91 81.91 81.91 81.91 81.91 81.91 81.91 81.91 81.91 81.91 81.91 81.91 81.91 81.91 81.91 81.91 81.91 81.91 81.91 4.20 4.20 4.25 4.23 4.29 4.28 3.92 3.98 3.82 3.84 3.76 3.76 3.74 3.71 3.71 3.71 3.71 3.71 3.75 3.71 3.77 3.75 3.84 3.82 3.62 3.66 3.11 3.12 3.11 3.09 3.09 3.09 3.00 2.99 2.83 2.82 2.83 2.82 2.92 2.86 2.97 2.95 3.27 3.17 3.26 3.26 3.29 3.29 3.26 3.26 3.22 3.21 5.90 5.90 5.34 5.83 5.69 5.15 4.46 4.55 4.45 4.44 4.45 4.44 4.45 4.43 4.46 4.45 4.45 4.45 4.56 4.49 5.14 5.13 1.49 1.50 1.45 1.45 1.42 1.42 1.40 1.40 1.39 1.39 1.38 1.37 1.36 1.36 1.36 1.35 1.38 1.36 1.47 1.46 1.50 1.44 4.55 4.55 1.50 1.53 1.49 1.49 1.47 1.48 1.45 1.46 4.59 4.58 4.56 4.56 4.54 4.53 4.51 4.51 4.48 4.48 3.80 4.44 3.63 3.63 3.62 3.61 3.61 3.61 1.73 3.59 3.59 1.71 1.70 3.56 3.57 3.56 3.55 3.53 3.55 3.54 3.54 3.54 3.52 3.52 3.49 3.52 3.56 3.53 3.54 3.52 4.12 3.58 4.21 4.00 3.69 3.73 5.24 5.12 7.23 7.25 8.86 8.84 8.91 8.88 7.28 81.91 8.98 8.94 9.00 8.97 8.58 8.84 6.98 7.08 4.37 4.41 4.37 4.34 4.40 4.38 4.43 4.40 4.45 4.43 4.48 4.46 4.51 4.49 4.54 4.51 4.57 4.53 4.59 4.56 4.63 4.59 4.65 4.63 4.54 4.60 4.40 4.45 4.26 4.32 1.63 81.91 1.52 1.56 1.47 1.49 1.44 1.46 1.44 1.44 1.43 1.42 1.43 1.42 1.42 1.41 1.42 1.41 1.42 1.41 1.42 1.42 1.43 1.42 1.44 1.43 1.46 1.44 1.48 1.46 1.49 1.47 1.51 1.49 1.54 1.51 1.57 1.53 4.08 1.58 2.92 4.10 2.82 2.84 2.81 2.81 2.78 2.79 2.87 2.78 3.00 2.93 3.15 2.98 3.25 3.23 3.71 3.70 3.73 3.71 5.51 5.39 3.68 3.70 3.71 3.66 3.77 3.69 4.06 3.14 2.83 2.87 2.81 2.82 2.81 2.81 2.80 2.81 81.91 2.79 3.28 81.91 5.30 5.30 5.29 5.28 5.30 5.29 3.85  0 -5.116643 1.101831 -2.276301 -5.116643 1.101831 -2.276301 0.000000 0.000000 0.000000 0.000000 0.000000 1134864657.631179 b21 15.146995
ROBOTLASER1 0 -1.570796 3.150447 0.008727 80.000000 0.010000 0 361 0.56 0.57 0.58 81.91 81.91 81.91 81.91 0.88 0.88 0.93 0.90 0.90 0.89 0.90 0.90 0.91 0.91 0.92 0.96 1.00 81.91 0.95 0.94 3.12 3.15 3.14 3.14 3.14 3.15 3.15 3.16 3.16 81.91 81.91 1.70 1.73 1.65 1.65 1.64 1.64 1.65 1.65 1.66 1.65 1.66 1.66 1.66 1.66 1.66 1.66 1.65 1.65 1.64 1.64 1.66 1.65 1.67 1.66 1.68 1.67 1.68 1.68 1.69 1.69 1.70 1.69 1.70 1.69 1.72 1.71 1.72 1.72 1.73 1.72 1.74 1.74 1.75 1.76 1.77 1.78 1.84 1.81 81.91 81.91 1.83 1.81 1.83 1.82 1.85 1.84 1.91 1.92 81.91 81.91 81.91 81.91 81.91 81.91 81.91 81.91 81.91 81.91 81.91 81.91 81.91 81.91 81.91 81.91 81.91 81.91 81.91 81.91 81.91 81.91 81.91 81.91 81.91 81.91 81.91 81.91 81.91 81.91 81.91 81.91 3.69 3.68 3.69 3.68 3.75 3.71 3.77 3.76 3.80 3.79 3.84 3.83 3.88 3.87 3.58 3.62 3.42 3.41 3.35 3.34 3.32 3.31 3.29 3.29 3.28 3.27 3.28 3.28 3.30 3.29 3.32 3.31 3.36 3.35 2.75 2.76 2.64 2.63 2.64 2.63 2.55 2.55 2.41 2.42 2.34 2.33 2.35 2.33 2.44 2.40 2.49 2.47 2.54 2.50 2.82 2.80 2.83 2.80 2.84 2.83 2.79 2.78 2.75 2.73 5.31 2.73 5.32 5.19 5.39 5.39 4.69 4.92 5.22 4.91 3.98 3.99 3.98 3.98 3.98 3.96 3.99 3.95 3.99 3.97 3.98 3.96 4.08 4.04 4.28 4.19 1.03 4.59 0.96 0.96 0.94 0.94 0.93 0.93 0.92 0.92 0.92 0.90 0.90 0.89 0.90 0.88 0.87 0.87 0.87 0.86 0.86 0.85 0.86 0.85 0.86 0.85 81.91 0.84 81.91 81.91 4.15 81.91 4.09 1.02 4.13 4.12 4.10 4.10 1.05 1.08 1.10 1.19 1.03 1.01 1.00 1.02 0.99 0.97 4.00 1.01 1.70 3.94 3.16 3.17 3.15 3.15 3.15 3.14 3.14 3.13 3.13 3.12 3.12 3.12 3.11 3.12 3.11 3.11 3.11 3.09 3.10 3.09 1.39 1.27 3.12 1.25 3.12 3.11 1.26 1.27 81.91 81.91 3.14 3.10 3.15 3.13 3.27 3.28 3.29 3.26 3.27 3.25 8.52 8.52 7.21 7.18 8.61 8.60 8.58 8.62 8.15 8.27 6.72 81.91 6.56 6.52 6.42 6.40 4.08 6.46 4.02 4.02 4.06 4.04 4.09 4.08 4.11 4.11 4.14 4.13 4.17 4.17 4.21 4.20 4.25 4.24 4.29 4.27 4.32 4.31 4.37 4.35 4.42 4.41 4.32 4.35 4.19 4.22 4.09 4.11 3.97 4.01 3.87 3.90 3.79 3.80 3.83  0 -5.556349 0.827312 -2.887487 -5.556349 0.827312 -2.887487 0.000000 0.000000 0.000000 0.000000 0.000000 1134864658.271181 b21 15.786997
ROBOTLASER1 0 -1.570796 3.150447 0.008727 80.000000 0.010000 0 361 81.91 3.17 3.18 81.91 3.19 3.14 81.91 3.14 3.13 3.12 3.12 3.10 3.11 3.06 3.08 3.05 3.05 1.95 1.96 2.03 2.03 2.20 1.93 2.23 2.22 3.02 3.03 3.02 3.01 3.01 3.00 81.91 81.91 81.91 81.91 81.91 81.91 81.91 81.91 81.91 81.91 81.91 81.91 81.91 81.91 1.54 1.53 1.45 1.44 1.42 1.43 1.41 1.41 1.40 1.40 1.40 1.40 1.39 1.40 1.40 1.40 1.38 1.38 1.38 1.39 1.37 1.37 1.37 1.37 1.37 1.37 1.36 1.36 1.35 1.35 1.35 1.35 1.34 1.35 1.34 1.35 1.35 1.36 1.36 1.37 1.37 1.38 1.37 1.37 1.38 1.39 1.38 1.38 1.38 1.39 1.39 1.41 1.40 1.41 1.41 1.41 1.42 1.43 1.42 1.44 1.43 1.44 1.44 1.44 1.43 1.44 1.44 1.45 1.46 1.47 1.49 1.50 81.91 81.91 81.91 81.91 81.91 81.91 81.91 81.91 81.91 81.91 81.91 81.91 81.91 81.91 81.91 81.91 81.91 81.91 81.91 81.91 81.91 81.91 81.91 81.91 81.91 81.91 81.91 81.91 3.12 3.13 3.14 3.15 3.16 3.17 3.18 3.20 3.20 3.21 3.21 3.23 3.24 3.26 3.26 3.28 3.29 3.31 3.32 3.34 3.35 3.22 2.93 2.91 2.86 2.86 2.80 2.81 2.78 2.78 2.76 2.77 2.75 2.76 2.75 2.76 2.76 2.77 2.77 2.79 2.79 2.81 2.83 2.84 2.23 2.18 2.09 2.10 2.09 2.10 2.09 2.09 1.99 1.99 1.98 1.89 1.81 1.82 1.81 1.81 1.81 1.81 1.87 1.93 1.95 1.96 1.95 1.96 2.26 2.29 2.27 2.28 2.28 2.32 2.30 2.30 2.27 2.28 2.24 2.24 2.21 2.21 4.87 4.86 4.78 4.75 4.08 4.23 4.65 4.63 3.44 3.44 3.45 3.45 3.45 3.45 3.44 3.45 3.44 3.47 3.46 3.47 3.47 3.50 3.53 3.60 3.71 4.04 4.11 4.11 4.07 4.07 4.03 4.02 3.99 3.99 3.96 3.95 3.92 3.92 3.89 3.89 3.87 3.86 3.84 3.83 3.81 3.80 3.78 3.78 3.76 3.75 3.74 3.71 3.69 3.69 3.68 3.68 0.86 0.83 0.82 0.83 0.83 0.81 0.80 0.76 0.75 0.72 0.71 0.72 0.72 0.72 0.75 0.63 0.64 0.59 0.58 0.57 0.56 0.57 0.56 0.56 0.56 0.56 0.56 0.56 0.55 0.56 0.56 0.56 0.56 0.55 0.55 0.56 0.56 0.55 0.55 0.55 0.54 0.55 0.55 0.55 0.55 0.55 0.55 0.55 0.54 0.56 0.56 0.55 0.56 0.55 0.56 0.55 0.55 0.56 0.54 0.55 0.55 0.57 0.57 0.63 0.56 81.91 81.91 81.91 81.91 81.91 81.91 0.84 81.91 0.82 0.82 6.51 6.43 6.32  0 -6.105078 0.777218 3.132043 -6.105078 0.777218 3.132043 0.000000 0.000000 0.000000 0.000000 0.000000 1134864658.912215 b21 16.428031
ROBOTLASER1 0 -1.570796 3.150447 0.008727 80.000000 0.010000 0 361 1.15 1.13 1.13 1.13 1.14 1.11 1.11 1.11 1.12 1.12 1.12 1.12 1.13 1.11 1.12 1.11 1.12 1.12 1.11 1.11 1.12 1.11 1.11 1.10 1.11 1.12 1.12 1.11 1.12 1.13 1.13 1.13 1.13 1.13 1.14 1.13 1.13 1.13 1.14 1.14 1.13 1.14 1.15 1.16 1.15 1.17 1.18 1.22 1.20 81.91 81.91 81.91 81.91 81.91 81.91 2.74 81.91 2.49 2.54 2.63 2.62 2.75 2.75 2.63 2.67 2.65 2.65 2.65 2.66 2.67 2.67 2.68 2.68 2.69 2.69 2.70 2.70 2.71 2.72 2.73 2.73 2.74 2.75 2.76 2.76 2.77 2.78 2.79 2.80 2.81 2.80 2.81 2.81 2.83 2.84 2.44 2.55 2.35 2.38 2.30 2.33 2.27 2.29 2.25 2.26 2.24 2.25 2.23 2.24 2.22 2.23 2.22 2.23 2.23 2.23 2.24 2.25 2.27 2.27 2.29 2.29 1.62 1.69 1.58 1.58 1.57 1.58 1.57 1.58 1.57 1.58 1.47 1.50 1.46 1.47 1.34 1.39 1.29 1.31 1.28 1.29 1.28 1.29 1.29 1.30 1.35 1.34 1.42 1.44 1.42 1.42 1.43 1.43 1.74 1.75 1.76 1.79 1.88 1.91 1.81 1.83 1.79 1.80 1.76 1.77 1.74 1.75 1.72 1.73 1.69 1.71 3.56 3.56 4.13 4.15 4.07 4.10 2.98 3.01 3.02 3.05 3.00 3.01 2.99 3.01 3.09 3.10 2.99 3.02 2.98 3.00 3.00 3.01 3.14 3.16 3.40 3.41 3.61 3.62 3.58 3.59 3.55 3.57 3.53 3.54 3.51 3.52 3.48 3.49 3.46 3.47 3.43 3.45 3.41 3.42 3.39 3.40 3.38 3.38 3.36 3.37 3.35 3.36 3.33 3.34 3.31 3.33 3.31 3.31 3.29 3.30 3.26 3.27 3.36 3.36 3.37 3.38 3.36 3.37 3.39 3.40 3.40 3.41 3.39 3.40 3.39 3.40 3.39 3.38 3.37 3.38 3.36 3.38 3.38 3.37 3.38 3.38 3.38 3.39 3.34 3.35 3.35 3.36 3.33 3.34 3.24 3.26 3.19 3.20 2.62 2.63 2.64 2.65 2.64 2.65 2.65 2.65 2.65 2.66 2.66 2.67 2.68 2.68 2.69 2.70 2.70 2.71 2.72 2.72 2.74 2.76 2.76 2.76 2.77 2.77 2.79 2.80 2.81 81.91 81.91 81.91 81.91 81.91 81.91 81.91 81.91 81.91 81.91 0.57 0.56 81.91 81.91 81.91 81.91 81.91 81.91 81.91 6.71 81.91 81.91 81.91 81.91 81.91 81.91 81.91 81.91 81.91 81.91 81.91 81.91 4.22 4.29 4.27 4.35 4.34 4.40 4.40 4.46 4.47 4.54 4.55 4.52 4.51 4.43 4.43 4.36 4.35 4.28 4.30 4.24 0.47 0.48 0.47 0.47 0.46 0.46 0.46 0.46 0.46 0.46 0.46  0 -6.599541 0.690169 -2.593390 -6.599541 0.690169 -2.593390 0.000000 0.000000 0.000000 0.000000 0.000000 1134864659.550249 b21 17.066065
ROBOTLASER1 0 -1.570796 3.150447 0.008727 80.000000 0.010000 0 361 2.10 2.01 2.02 1.98 1.99 1.95 1.96 1.94 1.94 1.92 1.93 1.91 1.92 1.32 1.90 1.24 1.26 1.24 1.25 1.24 1.24 1.21 1.23 0.93 1.12 0.90 0.92 0.90 0.91 0.89 0.90 0.89 0.89 0.90 0.89 0.92 0.91 1.02 0.94 1.02 1.03 1.03 1.03 1.01 1.02 1.01 1.01 1.01 1.01 1.11 1.03 1.28 1.23 1.30 1.31 1.30 1.30 1.32 1.32 1.34 1.34 3.44 1.35 1.50 3.46 1.41 1.44 1.36 1.38 1.34 1.34 1.31 1.32 1.29 1.31 1.27 1.28 3.76 1.27 3.82 3.81 3.65 3.59 3.91 3.91 3.87 3.89 3.80 3.82 3.06 3.06 3.67 3.69 3.61 3.64 2.65 2.65 2.81 2.74 2.64 2.66 2.54 2.55 2.59 2.58 2.71 2.67 2.64 2.66 2.64 2.64 2.67 2.66 2.70 2.69 2.89 2.79 3.15 3.15 3.11 3.13 3.09 3.10 3.07 3.07 3.04 3.05 3.01 3.02 2.99 3.00 2.97 2.97 2.95 2.96 2.93 2.94 2.91 2.92 2.90 2.91 2.88 2.89 2.86 2.88 2.85 2.86 2.84 2.85 2.83 2.84 2.83 2.84 2.82 2.82 2.81 2.82 2.81 2.82 2.76 2.78 2.85 2.85 2.87 2.89 2.88 2.89 2.86 2.86 2.90 2.92 2.90 2.91 2.89 2.90 2.90 2.91 2.91 2.92 2.90 2.91 2.92 2.93 2.91 2.91 2.91 2.92 2.92 2.93 2.92 2.93 2.89 2.90 2.90 2.91 2.91 2.92 2.82 2.84 2.81 2.81 2.70 2.72 2.51 2.52 2.34 2.35 2.20 2.21 2.21 2.23 2.23 2.24 2.24 2.25 2.26 2.27 2.27 2.27 2.28 2.28 2.29 2.30 2.31 2.31 2.33 2.33 2.35 2.36 2.38 2.40 2.41 2.42 2.45 2.45 2.46 2.47 2.49 2.50 2.52 2.53 2.55 2.56 2.58 2.59 2.60 2.61 2.83 2.84 2.84 2.85 6.22 6.24 6.10 6.11 3.80 3.81 3.71 3.71 3.76 3.77 3.82 3.84 3.90 3.90 3.96 3.97 4.04 4.05 4.12 4.12 4.20 4.21 4.29 4.30 4.38 4.39 4.36 4.35 81.91 81.91 4.22 4.23 81.91 4.17 4.10 4.12 4.05 4.08 4.01 4.01 3.98 3.99 3.93 3.94 4.06 4.12 4.21 4.22 4.36 4.36 4.51 4.52 81.91 0.83 0.80 81.91 4.70 4.69 4.66 4.67 4.63 4.64 4.61 4.61 4.66 4.68 4.63 4.64 4.53 4.53 4.57 4.59 4.73 4.73 4.87 4.87 1.19 1.18 1.16 4.57 4.57 4.58 1.23 4.60 4.60 4.60 4.56 4.56 81.91 81.91 3.56 0.46 3.57 0.41 0.43 0.45 0.41 0.49 81.91 0.47 0.47 0.47 0.47 0.50 0.48 81.91 81.91 81.91 81.91 81.91  0 -6.970919 0.346309 -1.917418 -6.970919 0.346309 -1.917418 0.000000 0.000000 0.000000 0.000000 0.000000 1134864660.190186 b21 17.706002
ROBOTLASER1 0 -1.570796 3.150447 0.008727 80.000000 0.010000 0 361 0.95 0.95 0.94 0.95 0.96 0.96 0.97 0.98 1.09 1.12 1.22 1.20 1.18 1.18 1.17 1.17 1.18 1.18 1.15 1.16 1.16 1.14 1.17 1.16 1.17 1.16 1.17 1.17 1.17 1.17 1.16 1.15 2.66 2.54 2.34 2.34 1.22 1.21 1.40 1.40 1.14 1.15 81.91 81.91 1.06 1.06 1.07 1.06 3.09 3.08 2.26 2.36 3.07 2.40 3.15 3.14 3.18 3.17 3.20 3.19 3.23 3.21 3.24 3.23 3.26 3.25 3.29 3.28 3.31 3.31 3.35 3.34 3.38 3.36 3.40 3.39 3.44 3.41 3.47 3.45 3.49 3.48 3.31 3.46 3.56 3.49 3.61 3.59 2.84 3.50 2.33 2.45 2.26 2.26 2.28 2.23 2.19 2.27 2.18 2.16 2.16 2.16 2.16 2.16 2.19 2.13 2.22 2.22 2.22 2.19 2.23 2.19 2.26 2.20 2.30 2.26 2.38 2.29 2.78 2.78 2.75 2.75 2.73 2.73 2.69 2.69 2.66 2.66 2.63 2.64 2.61 2.61 2.58 2.58 2.56 2.56 2.53 2.54 2.51 2.51 2.49 2.49 2.48 2.48 2.46 2.46 2.44 2.44 2.42 2.41 2.40 2.39 2.38 2.38 2.37 2.36 2.35 2.35 2.34 2.33 2.34 2.33 2.33 2.33 2.32 2.31 2.31 2.31 2.29 2.30 2.27 2.26 2.36 2.29 2.38 2.36 2.37 2.36 2.36 2.35 2.40 2.33 2.40 2.39 2.40 2.39 2.39 2.39 2.40 2.38 2.38 2.36 2.39 2.38 2.40 2.38 2.39 2.39 2.40 2.39 2.41 2.40 2.42 2.39 2.42 2.40 2.43 2.41 2.39 2.42 2.39 2.38 2.40 2.39 2.41 2.40 2.31 2.36 2.29 2.29 2.24 2.29 2.11 2.19 1.98 2.04 1.87 1.93 1.70 1.79 1.70 1.69 1.72 1.70 1.73 1.72 1.74 1.72 1.75 1.74 1.77 1.75 1.78 1.76 1.80 1.78 1.81 1.79 1.83 1.81 1.85 1.82 1.86 1.84 1.88 1.85 1.91 1.88 1.93 1.90 1.95 1.93 1.97 1.95 2.00 1.97 2.03 2.00 2.07 2.03 2.09 2.07 2.12 2.09 2.15 2.12 2.32 2.17 2.38 2.34 5.50 2.37 3.35 3.48 3.32 3.32 3.37 3.32 3.44 3.38 3.50 3.44 3.58 3.53 3.66 3.60 3.75 3.68 3.85 3.78 3.94 3.87 4.04 3.97 4.00 4.03 3.96 3.97 3.91 3.93 3.87 3.90 81.91 3.86 3.80 81.91 3.75 3.78 3.73 3.75 3.69 3.72 3.65 3.67 3.82 3.66 3.98 3.88 4.16 4.08 4.48 4.26 4.50 4.48 4.48 4.49 4.46 4.47 4.45 4.45 4.44 4.45 4.41 1.85 4.56 4.42 4.45 4.48 4.36 4.41 4.38 4.36 4.57 4.44 4.76 4.64 81.91 4.82 4.43 81.91 4.44  0 -7.109880 -0.167267 -2.065537 -7.109880 -0.167267 -2.065537 0.000000 0.000000 0.000000 0.000000 0.000000 1134864660.830934 b21 18.346750
ROBOTLASER1 0 -1.570796 3.150447 0.008727 80.000000 0.010000 0 361 3.04 3.05 3.00 3.03 3.00 3.01 2.98 2.99 2.96 2.97 0.98 0.97 0.95 0.95 0.93 0.93 0.93 0.93 0.96 0.95 0.98 0.97 1.00 0.99 1.13 1.12 1.01 1.01 1.00 0.99 0.95 0.95 0.93 0.93 0.94 0.94 0.95 0.94 0.97 0.96 1.36 1.27 1.38 1.38 1.38 1.38 1.36 1.38 81.91 1.28 81.91 81.91 81.91 81.91 81.91 81.91 81.91 81.91 1.08 1.09 1.17 81.91 81.91 81.91 1.11 1.14 1.15 1.14 1.70 1.68 1.25 1.63 1.95 1.94 1.06 1.25 1.05 1.07 1.07 1.09 0.91 0.90 0.94 0.92 0.98 0.97 1.07 1.05 2.18 1.43 2.09 2.08 2.64 2.16 2.85 2.84 2.85 2.85 2.86 2.85 2.86 2.86 2.89 2.87 2.27 2.88 2.14 2.06 2.92 2.90 2.94 2.92 2.95 2.94 2.97 2.96 2.98 2.97 3.00 2.98 3.02 3.00 3.04 3.02 3.06 3.04 3.07 3.06 3.09 3.07 3.12 3.09 3.14 3.12 3.16 3.14 3.18 3.17 3.21 3.19 3.23 3.21 3.24 3.24 3.08 3.12 3.30 3.25 2.07 1.89 1.91 1.91 1.92 1.89 1.93 1.92 1.89 1.87 1.90 1.87 1.88 1.87 1.87 1.88 1.84 1.83 1.85 1.84 1.83 1.82 1.82 1.81 1.84 1.82 1.86 1.83 1.96 1.85 2.03 1.97 2.49 2.09 2.48 2.49 2.44 2.46 2.40 2.41 2.38 2.38 2.34 2.34 2.32 2.31 2.30 2.31 2.28 2.28 2.25 2.26 2.23 2.23 2.20 2.21 2.19 2.19 2.16 2.17 2.15 2.15 2.14 2.14 2.12 2.13 2.11 2.11 2.10 2.10 2.08 2.08 2.07 2.07 2.05 2.05 2.05 2.05 2.04 2.04 2.03 2.03 2.02 2.01 2.01 2.01 2.00 2.00 2.00 1.99 1.98 1.98 1.95 1.96 1.99 1.94 2.07 2.00 2.06 2.05 2.06 2.06 2.06 2.06 2.07 2.06 2.10 2.08 2.09 2.07 2.08 2.07 2.10 2.08 2.09 2.08 2.09 2.09 2.10 2.09 2.10 2.09 2.10 2.09 2.11 2.09 2.12 2.10 2.11 2.11 2.12 2.11 2.13 2.12 2.14 2.12 2.10 2.13 2.10 2.10 2.12 2.10 2.13 2.11 2.12 2.12 2.05 2.09 2.04 2.02 1.98 2.03 1.89 1.98 1.81 1.89 1.72 1.82 1.65 1.71 1.58 1.64 1.54 1.57 1.47 1.53 1.47 1.47 1.48 1.47 1.51 1.49 1.51 1.50 1.53 1.51 1.54 1.53 1.56 1.54 1.58 1.56 1.60 1.57 1.62 1.60 1.63 1.62 1.65 1.62 1.67 1.65 1.69 1.67 1.73 1.69 1.75 1.72 1.78 1.75 1.82 1.79 1.85 1.82 1.88 1.85 1.92 1.88 1.95 1.92 2.00 1.95 2.08  0 -7.298898 -0.408535 -2.668075 -7.298898 -0.408535 -2.668075 0.000000 0.000000 0.000000 0.000000 0.000000 1134864661.261181 b21 18.776997
ROBOTLASER1 0 -1.570796 3.150447 0.008727 80.000000 0.010000 0 361 0.86 0.86 0.84 0.86 0.86 0.86 0.86 0.87 0.87 0.75 0.79 0.75 0.75 0.74 0.75 0.76 0.75 0.77 0.77 0.82 0.77 0.97 0.90 1.02 1.02 1.02 1.02 1.04 1.04 1.01 1.04 1.02 1.02 1.03 1.01 1.12 1.03 81.91 81.91 81.91 81.91 81.91 81.91 81.91 81.91 81.91 81.91 81.91 81.91 81.91 81.91 81.91 81.91 81.91 81.91 81.91 81.91 81.91 81.91 81.91 81.91 81.91 81.91 81.91 81.91 0.60 0.67 0.55 0.58 0.55 0.55 0.56 0.55 0.56 0.57 0.58 0.58 0.59 0.58 0.60 0.59 0.61 0.61 0.61 0.62 0.63 0.63 0.65 0.65 0.66 0.67 0.70 0.69 0.72 0.72 0.75 0.74 1.05 0.93 1.67 1.66 1.73 1.73 1.64 1.66 1.64 1.64 2.35 2.36 1.76 1.79 1.84 1.83 2.01 2.03 2.03 2.03 2.04 2.05 1.69 1.71 1.64 1.63 2.34 2.34 2.28 2.29 2.16 2.16 2.36 2.36 2.36 2.37 2.37 2.38 2.38 2.38 2.38 2.39 1.65 1.67 1.61 1.61 2.40 2.41 2.41 2.42 2.42 2.44 2.42 2.44 2.44 2.45 2.46 2.47 2.48 2.47 2.48 2.48 2.50 2.51 2.50 2.52 2.52 2.52 2.52 2.53 2.55 2.54 2.56 2.57 2.57 2.59 2.59 2.59 2.60 2.61 2.62 2.62 2.63 2.64 2.65 2.66 2.67 2.68 2.69 2.70 2.71 2.72 2.72 2.72 2.51 2.55 2.78 2.79 2.81 2.82 2.01 1.94 1.63 1.66 1.43 1.44 1.67 1.69 1.45 2.60 81.91 81.91 81.91 81.91 1.39 1.38 1.37 1.37 1.40 1.41 81.91 81.91 1.79 1.83 1.69 1.67 1.61 1.64 1.64 1.63 1.63 1.64 1.65 1.66 1.66 1.64 1.64 1.66 1.73 1.83 1.98 2.00 1.97 1.97 1.95 1.96 1.94 1.94 1.91 1.92 1.90 1.91 1.88 1.89 1.87 1.87 1.84 1.86 1.83 1.84 1.82 1.81 1.80 1.80 1.79 1.79 1.77 1.78 1.76 1.76 1.75 1.76 1.74 1.75 1.72 1.72 1.72 1.71 1.72 1.72 1.70 1.71 1.70 1.70 1.70 1.70 1.69 1.69 1.69 1.70 1.69 1.69 1.68 1.69 1.68 1.68 1.68 1.68 1.67 1.68 1.67 1.67 1.67 1.67 1.67 1.67 1.67 1.67 1.67 1.67 1.67 1.67 1.67 1.67 1.66 1.67 1.64 1.65 1.65 1.66 1.75 1.77 1.77 1.77 1.77 1.77 1.78 1.78 1.77 1.77 1.84 1.84 1.85 1.86 1.86 1.86 1.86 1.87 1.87 1.87 1.88 1.88 1.89 1.90 1.90 1.90 1.91 1.92 1.93 1.93 1.95 1.95 1.95 1.95 1.96 1.97 1.99 1.98 2.00 2.01 2.02 2.03 2.02 1.97  0 -7.826636 -0.494531 -3.048854 -7.826636 -0.494531 -3.048854 0.000000 0.000000 0.000000 0.000000 0.000000 1134864662.120182 b21 19.635998
ROBOTLASER1 0 -1.570796 3.150447 0.008727 80.000000 0.010000 0 361 1.57 1.99 1.74 1.54 1.71 1.71 1.54 1.84 2.04 1.75 1.83 1.83 1.75 1.48 2.07 1.39 1.41 2.13 1.47 2.13 2.14 2.13 2.14 2.13 2.14 1.92 2.08 2.13 1.91 2.13 2.13 2.13 2.14 2.13 2.14 1.44 2.14 1.35 1.36 2.13 1.36 2.14 2.14 2.15 2.15 2.15 2.15 2.16 2.15 2.16 2.16 2.17 2.17 2.18 2.17 2.18 2.17 2.19 2.19 2.20 2.18 2.20 2.19 2.21 2.20 2.21 2.21 2.22 2.22 2.23 2.23 2.25 2.24 2.26 2.25 2.28 2.26 2.29 2.28 2.30 2.30 2.31 2.31 2.33 2.32 2.33 2.33 2.35 2.34 2.37 2.35 2.38 2.37 2.39 2.38 2.41 2.41 2.41 2.44 2.22 2.27 2.48 2.37 2.50 2.49 1.72 2.51 1.63 1.63 2.41 1.77 2.34 2.39 2.28 2.33 2.27 2.28 2.21 2.27 81.91 81.91 81.91 81.91 1.08 81.91 1.06 1.08 1.09 1.09 81.91 1.11 81.91 81.91 1.89 1.93 1.89 1.91 1.85 1.89 1.84 1.86 1.81 1.83 1.78 1.80 1.76 1.79 1.73 1.75 1.72 1.72 1.71 1.72 1.69 1.70 1.67 1.69 1.65 1.67 1.64 1.65 1.63 1.64 1.61 1.63 1.60 1.61 1.60 1.60 1.58 1.60 1.57 1.58 1.56 1.57 1.55 1.56 1.54 1.56 1.54 1.54 1.52 1.54 1.52 1.52 1.50 1.52 1.50 1.50 1.49 1.49 1.48 1.48 1.47 1.48 1.47 1.47 1.47 1.48 1.46 1.47 1.46 1.47 1.46 1.47 1.46 1.46 1.45 1.46 1.46 1.46 1.46 1.47 1.46 1.47 1.46 1.46 1.46 1.46 1.46 1.47 1.47 1.47 1.47 1.47 1.47 1.47 1.46 1.47 1.47 1.47 1.47 1.48 1.48 1.48 1.48 1.48 1.48 1.49 1.49 1.50 1.49 1.48 1.50 1.50 1.61 1.56 1.62 1.61 1.64 1.64 1.64 1.64 1.64 1.64 1.72 1.72 1.73 1.73 1.75 1.74 1.75 1.76 1.77 1.76 1.79 1.78 1.81 1.80 1.82 1.82 1.83 1.83 1.85 1.84 1.88 1.87 1.90 1.89 1.93 1.93 1.94 1.93 1.97 1.97 1.97 1.99 1.93 1.93 1.96 1.95 1.98 1.97 2.00 2.00 1.97 1.98 1.95 1.97 1.96 1.96 1.95 1.96 1.92 1.93 1.88 1.90 1.85 1.86 1.82 1.84 1.79 1.81 1.76 1.77 1.74 1.75 1.71 1.72 1.69 1.70 1.66 1.68 1.65 1.65 1.62 1.63 1.60 1.61 1.59 1.59 1.56 1.57 1.61 1.59 1.66 1.63 1.71 1.68 1.76 1.75 1.81 1.80 1.88 1.84 1.94 1.91 2.03 2.00 2.13 2.09 2.22 2.18 2.32 2.28 4.43 2.38 4.34 4.36 4.31 4.33  0 -8.111153 -0.588065 -2.274716 -8.111153 -0.588065 -2.274716 0.000000 0.000000 0.000000 0.000000 0.000000 1134864662.761184 b21 20.277000
